[
  {
    "name": "Bamboo Flat",
    "state_name": "Andaman and Nicobar Islands",
    "country_name": "India",
    "latitude": "11.70000000",
    "longitude": "92.71667000",
    "isActive": true
  },
  {
    "name": "Nicobar",
    "state_name": "Andaman and Nicobar Islands",
    "country_name": "India",
    "latitude": "7.03002000",
    "longitude": "93.79028000",
    "isActive": true
  },
  {
    "name": "Port Blair",
    "state_name": "Andaman and Nicobar Islands",
    "country_name": "India",
    "latitude": "11.66613000",
    "longitude": "92.74635000",
    "isActive": true
  },
  {
    "name": "South Andaman",
    "state_name": "Andaman and Nicobar Islands",
    "country_name": "India",
    "latitude": "10.75776000",
    "longitude": "92.52136000",
    "isActive": true
  },
  {
    "name": "Addanki",
    "state_name": "Andhra Pradesh",
    "country_name": "India",
    "latitude": "15.81061000",
    "longitude": "79.97338000",
    "isActive": true
  },
  {
    "name": "Adoni",
    "state_name": "Andhra Pradesh",
    "country_name": "India",
    "latitude": "15.62788000",
    "longitude": "77.27495000",
    "isActive": true
  },
  {
    "name": "Akasahebpet",
    "state_name": "Andhra Pradesh",
    "country_name": "India",
    "latitude": "17.50455000",
    "longitude": "82.56597000",
    "isActive": true
  },
  {
    "name": "Akividu",
    "state_name": "Andhra Pradesh",
    "country_name": "India",
    "latitude": "16.58225000",
    "longitude": "81.38112000",
    "isActive": true
  },
  {
    "name": "Akkarampalle",
    "state_name": "Andhra Pradesh",
    "country_name": "India",
    "latitude": "13.65000000",
    "longitude": "79.42000000",
    "isActive": true
  },
  {
    "name": "Amalapuram",
    "state_name": "Andhra Pradesh",
    "country_name": "India",
    "latitude": "16.57868000",
    "longitude": "82.00609000",
    "isActive": true
  },
  {
    "name": "Amudalavalasa",
    "state_name": "Andhra Pradesh",
    "country_name": "India",
    "latitude": "18.41025000",
    "longitude": "83.90295000",
    "isActive": true
  },
  {
    "name": "Anakapalle",
    "state_name": "Andhra Pradesh",
    "country_name": "India",
    "latitude": "17.69134000",
    "longitude": "83.00395000",
    "isActive": true
  },
  {
    "name": "Anantapur",
    "state_name": "Andhra Pradesh",
    "country_name": "India",
    "latitude": "14.55000000",
    "longitude": "77.41667000",
    "isActive": true
  },
  {
    "name": "Atmakur",
    "state_name": "Andhra Pradesh",
    "country_name": "India",
    "latitude": "15.88109000",
    "longitude": "78.58704000",
    "isActive": true
  },
  {
    "name": "Attili",
    "state_name": "Andhra Pradesh",
    "country_name": "India",
    "latitude": "16.70000000",
    "longitude": "81.60000000",
    "isActive": true
  },
  {
    "name": "Avanigadda",
    "state_name": "Andhra Pradesh",
    "country_name": "India",
    "latitude": "16.02148000",
    "longitude": "80.91808000",
    "isActive": true
  },
  {
    "name": "Badvel",
    "state_name": "Andhra Pradesh",
    "country_name": "India",
    "latitude": "14.74510000",
    "longitude": "79.06288000",
    "isActive": true
  },
  {
    "name": "Banganapalle",
    "state_name": "Andhra Pradesh",
    "country_name": "India",
    "latitude": "15.31771000",
    "longitude": "78.22669000",
    "isActive": true
  },
  {
    "name": "Bapatla",
    "state_name": "Andhra Pradesh",
    "country_name": "India",
    "latitude": "15.90422000",
    "longitude": "80.46743000",
    "isActive": true
  },
  {
    "name": "Betamcherla",
    "state_name": "Andhra Pradesh",
    "country_name": "India",
    "latitude": "15.45144000",
    "longitude": "78.14797000",
    "isActive": true
  },
  {
    "name": "Bhattiprolu",
    "state_name": "Andhra Pradesh",
    "country_name": "India",
    "latitude": "16.10260000",
    "longitude": "80.78074000",
    "isActive": true
  },
  {
    "name": "Bhimavaram",
    "state_name": "Andhra Pradesh",
    "country_name": "India",
    "latitude": "16.54078000",
    "longitude": "81.52322000",
    "isActive": true
  },
  {
    "name": "Bhimunipatnam",
    "state_name": "Andhra Pradesh",
    "country_name": "India",
    "latitude": "17.89017000",
    "longitude": "83.45203000",
    "isActive": true
  },
  {
    "name": "Bobbili",
    "state_name": "Andhra Pradesh",
    "country_name": "India",
    "latitude": "18.57366000",
    "longitude": "83.35925000",
    "isActive": true
  },
  {
    "name": "Challapalle",
    "state_name": "Andhra Pradesh",
    "country_name": "India",
    "latitude": "16.11756000",
    "longitude": "80.93139000",
    "isActive": true
  },
  {
    "name": "Chemmumiahpet",
    "state_name": "Andhra Pradesh",
    "country_name": "India",
    "latitude": "15.89794000",
    "longitude": "79.32129000",
    "isActive": true
  },
  {
    "name": "Chilakalurupet",
    "state_name": "Andhra Pradesh",
    "country_name": "India",
    "latitude": "16.08987000",
    "longitude": "80.16705000",
    "isActive": true
  },
  {
    "name": "Chinnachowk",
    "state_name": "Andhra Pradesh",
    "country_name": "India",
    "latitude": "14.47516000",
    "longitude": "78.83540000",
    "isActive": true
  },
  {
    "name": "Chipurupalle",
    "state_name": "Andhra Pradesh",
    "country_name": "India",
    "latitude": "18.31142000",
    "longitude": "83.56846000",
    "isActive": true
  },
  {
    "name": "Chirala",
    "state_name": "Andhra Pradesh",
    "country_name": "India",
    "latitude": "15.82385000",
    "longitude": "80.35219000",
    "isActive": true
  },
  {
    "name": "Chittoor",
    "state_name": "Andhra Pradesh",
    "country_name": "India",
    "latitude": "13.41667000",
    "longitude": "79.00000000",
    "isActive": true
  },
  {
    "name": "Chodavaram",
    "state_name": "Andhra Pradesh",
    "country_name": "India",
    "latitude": "17.82884000",
    "longitude": "82.93526000",
    "isActive": true
  },
  {
    "name": "Cuddapah",
    "state_name": "Andhra Pradesh",
    "country_name": "India",
    "latitude": "14.41667000",
    "longitude": "78.75000000",
    "isActive": true
  },
  {
    "name": "Cumbum",
    "state_name": "Andhra Pradesh",
    "country_name": "India",
    "latitude": "15.58171000",
    "longitude": "79.11059000",
    "isActive": true
  },
  {
    "name": "Darsi",
    "state_name": "Andhra Pradesh",
    "country_name": "India",
    "latitude": "15.76978000",
    "longitude": "79.67939000",
    "isActive": true
  },
  {
    "name": "Dharmavaram",
    "state_name": "Andhra Pradesh",
    "country_name": "India",
    "latitude": "14.41435000",
    "longitude": "77.72035000",
    "isActive": true
  },
  {
    "name": "Dhone",
    "state_name": "Andhra Pradesh",
    "country_name": "India",
    "latitude": "15.39520000",
    "longitude": "77.87150000",
    "isActive": true
  },
  {
    "name": "Diguvametta",
    "state_name": "Andhra Pradesh",
    "country_name": "India",
    "latitude": "15.39507000",
    "longitude": "78.82930000",
    "isActive": true
  },
  {
    "name": "East Godavari",
    "state_name": "Andhra Pradesh",
    "country_name": "India",
    "latitude": "17.83333000",
    "longitude": "81.83333000",
    "isActive": true
  },
  {
    "name": "Elamanchili",
    "state_name": "Andhra Pradesh",
    "country_name": "India",
    "latitude": "17.54907000",
    "longitude": "82.85749000",
    "isActive": true
  },
  {
    "name": "Ellore",
    "state_name": "Andhra Pradesh",
    "country_name": "India",
    "latitude": "16.71311000",
    "longitude": "81.10437000",
    "isActive": true
  },
  {
    "name": "Emmiganur",
    "state_name": "Andhra Pradesh",
    "country_name": "India",
    "latitude": "15.77203000",
    "longitude": "77.48345000",
    "isActive": true
  },
  {
    "name": "Erraguntla",
    "state_name": "Andhra Pradesh",
    "country_name": "India",
    "latitude": "14.63853000",
    "longitude": "78.53974000",
    "isActive": true
  },
  {
    "name": "Etikoppaka",
    "state_name": "Andhra Pradesh",
    "country_name": "India",
    "latitude": "17.50000000",
    "longitude": "82.73333000",
    "isActive": true
  },
  {
    "name": "Gajuwaka",
    "state_name": "Andhra Pradesh",
    "country_name": "India",
    "latitude": "17.70000000",
    "longitude": "83.21667000",
    "isActive": true
  },
  {
    "name": "Ganguvada",
    "state_name": "Andhra Pradesh",
    "country_name": "India",
    "latitude": "18.66667000",
    "longitude": "84.11667000",
    "isActive": true
  },
  {
    "name": "Gannavaram",
    "state_name": "Andhra Pradesh",
    "country_name": "India",
    "latitude": "16.54092000",
    "longitude": "80.80213000",
    "isActive": true
  },
  {
    "name": "Giddalur",
    "state_name": "Andhra Pradesh",
    "country_name": "India",
    "latitude": "15.37439000",
    "longitude": "78.92609000",
    "isActive": true
  },
  {
    "name": "Gokavaram",
    "state_name": "Andhra Pradesh",
    "country_name": "India",
    "latitude": "17.25823000",
    "longitude": "81.84985000",
    "isActive": true
  },
  {
    "name": "Gorantla",
    "state_name": "Andhra Pradesh",
    "country_name": "India",
    "latitude": "13.98411000",
    "longitude": "77.77224000",
    "isActive": true
  },
  {
    "name": "GovindapuramChilakaluripetGuntur",
    "state_name": "Andhra Pradesh",
    "country_name": "India",
    "latitude": "16.15477000",
    "longitude": "80.10279000",
    "isActive": true
  },
  {
    "name": "Gudivada",
    "state_name": "Andhra Pradesh",
    "country_name": "India",
    "latitude": "16.43547000",
    "longitude": "80.99555000",
    "isActive": true
  },
  {
    "name": "Gudlavalleru",
    "state_name": "Andhra Pradesh",
    "country_name": "India",
    "latitude": "16.35000000",
    "longitude": "81.05000000",
    "isActive": true
  },
  {
    "name": "Gudur",
    "state_name": "Andhra Pradesh",
    "country_name": "India",
    "latitude": "14.15093000",
    "longitude": "79.85210000",
    "isActive": true
  },
  {
    "name": "Guntakal Junction",
    "state_name": "Andhra Pradesh",
    "country_name": "India",
    "latitude": "15.17112000",
    "longitude": "77.36244000",
    "isActive": true
  },
  {
    "name": "Guntur",
    "state_name": "Andhra Pradesh",
    "country_name": "India",
    "latitude": "16.29974000",
    "longitude": "80.45729000",
    "isActive": true
  },
  {
    "name": "Hindupur",
    "state_name": "Andhra Pradesh",
    "country_name": "India",
    "latitude": "13.82807000",
    "longitude": "77.49143000",
    "isActive": true
  },
  {
    "name": "Ichchapuram",
    "state_name": "Andhra Pradesh",
    "country_name": "India",
    "latitude": "19.11393000",
    "longitude": "84.68721000",
    "isActive": true
  },
  {
    "name": "Jaggayyapeta",
    "state_name": "Andhra Pradesh",
    "country_name": "India",
    "latitude": "16.89380000",
    "longitude": "80.09807000",
    "isActive": true
  },
  {
    "name": "Jammalamadugu",
    "state_name": "Andhra Pradesh",
    "country_name": "India",
    "latitude": "14.84677000",
    "longitude": "78.38314000",
    "isActive": true
  },
  {
    "name": "Kadiri",
    "state_name": "Andhra Pradesh",
    "country_name": "India",
    "latitude": "14.11168000",
    "longitude": "78.15982000",
    "isActive": true
  },
  {
    "name": "Kaikalur",
    "state_name": "Andhra Pradesh",
    "country_name": "India",
    "latitude": "16.55154000",
    "longitude": "81.21400000",
    "isActive": true
  },
  {
    "name": "Kakinada",
    "state_name": "Andhra Pradesh",
    "country_name": "India",
    "latitude": "16.96036000",
    "longitude": "82.23809000",
    "isActive": true
  },
  {
    "name": "Kalyandurg",
    "state_name": "Andhra Pradesh",
    "country_name": "India",
    "latitude": "14.54519000",
    "longitude": "77.10552000",
    "isActive": true
  },
  {
    "name": "Kamalapuram",
    "state_name": "Andhra Pradesh",
    "country_name": "India",
    "latitude": "14.59830000",
    "longitude": "78.66948000",
    "isActive": true
  },
  {
    "name": "Kandukur",
    "state_name": "Andhra Pradesh",
    "country_name": "India",
    "latitude": "15.21542000",
    "longitude": "79.90390000",
    "isActive": true
  },
  {
    "name": "Kanigiri",
    "state_name": "Andhra Pradesh",
    "country_name": "India",
    "latitude": "15.40555000",
    "longitude": "79.50694000",
    "isActive": true
  },
  {
    "name": "Kankipadu",
    "state_name": "Andhra Pradesh",
    "country_name": "India",
    "latitude": "16.43530000",
    "longitude": "80.76715000",
    "isActive": true
  },
  {
    "name": "Kanuru",
    "state_name": "Andhra Pradesh",
    "country_name": "India",
    "latitude": "16.28584000",
    "longitude": "81.25464000",
    "isActive": true
  },
  {
    "name": "Kavali",
    "state_name": "Andhra Pradesh",
    "country_name": "India",
    "latitude": "14.91630000",
    "longitude": "79.99449000",
    "isActive": true
  },
  {
    "name": "Kolanukonda",
    "state_name": "Andhra Pradesh",
    "country_name": "India",
    "latitude": "16.45392000",
    "longitude": "80.61046000",
    "isActive": true
  },
  {
    "name": "Kondapalle",
    "state_name": "Andhra Pradesh",
    "country_name": "India",
    "latitude": "16.61989000",
    "longitude": "80.54244000",
    "isActive": true
  },
  {
    "name": "Korukollu",
    "state_name": "Andhra Pradesh",
    "country_name": "India",
    "latitude": "16.50000000",
    "longitude": "81.25000000",
    "isActive": true
  },
  {
    "name": "Kosigi",
    "state_name": "Andhra Pradesh",
    "country_name": "India",
    "latitude": "15.85510000",
    "longitude": "77.24463000",
    "isActive": true
  },
  {
    "name": "Kovvur",
    "state_name": "Andhra Pradesh",
    "country_name": "India",
    "latitude": "17.01620000",
    "longitude": "81.72934000",
    "isActive": true
  },
  {
    "name": "Krishna",
    "state_name": "Andhra Pradesh",
    "country_name": "India",
    "latitude": "16.66667000",
    "longitude": "81.00000000",
    "isActive": true
  },
  {
    "name": "Kuppam",
    "state_name": "Andhra Pradesh",
    "country_name": "India",
    "latitude": "12.74931000",
    "longitude": "78.34189000",
    "isActive": true
  },
  {
    "name": "Kurnool",
    "state_name": "Andhra Pradesh",
    "country_name": "India",
    "latitude": "15.58333000",
    "longitude": "78.33333000",
    "isActive": true
  },
  {
    "name": "Macherla",
    "state_name": "Andhra Pradesh",
    "country_name": "India",
    "latitude": "16.47635000",
    "longitude": "79.43533000",
    "isActive": true
  },
  {
    "name": "Machilipatnam",
    "state_name": "Andhra Pradesh",
    "country_name": "India",
    "latitude": "16.18747000",
    "longitude": "81.13888000",
    "isActive": true
  },
  {
    "name": "Madanapalle",
    "state_name": "Andhra Pradesh",
    "country_name": "India",
    "latitude": "13.55030000",
    "longitude": "78.50288000",
    "isActive": true
  },
  {
    "name": "Madugula",
    "state_name": "Andhra Pradesh",
    "country_name": "India",
    "latitude": "17.91589000",
    "longitude": "82.81578000",
    "isActive": true
  },
  {
    "name": "Mandapeta",
    "state_name": "Andhra Pradesh",
    "country_name": "India",
    "latitude": "16.86254000",
    "longitude": "81.92921000",
    "isActive": true
  },
  {
    "name": "Mandasa",
    "state_name": "Andhra Pradesh",
    "country_name": "India",
    "latitude": "18.86830000",
    "longitude": "84.46296000",
    "isActive": true
  },
  {
    "name": "Mangalagiri",
    "state_name": "Andhra Pradesh",
    "country_name": "India",
    "latitude": "16.43083000",
    "longitude": "80.56815000",
    "isActive": true
  },
  {
    "name": "Markapur",
    "state_name": "Andhra Pradesh",
    "country_name": "India",
    "latitude": "15.73534000",
    "longitude": "79.26848000",
    "isActive": true
  },
  {
    "name": "Nagari",
    "state_name": "Andhra Pradesh",
    "country_name": "India",
    "latitude": "13.32139000",
    "longitude": "79.58557000",
    "isActive": true
  },
  {
    "name": "Nagireddipalli",
    "state_name": "Andhra Pradesh",
    "country_name": "India",
    "latitude": "14.27005000",
    "longitude": "79.10131000",
    "isActive": true
  },
  {
    "name": "Nandigama",
    "state_name": "Andhra Pradesh",
    "country_name": "India",
    "latitude": "16.77170000",
    "longitude": "80.28596000",
    "isActive": true
  },
  {
    "name": "Nandikotkur",
    "state_name": "Andhra Pradesh",
    "country_name": "India",
    "latitude": "15.85668000",
    "longitude": "78.26569000",
    "isActive": true
  },
  {
    "name": "Nandyal",
    "state_name": "Andhra Pradesh",
    "country_name": "India",
    "latitude": "15.47799000",
    "longitude": "78.48360000",
    "isActive": true
  },
  {
    "name": "Narasannapeta",
    "state_name": "Andhra Pradesh",
    "country_name": "India",
    "latitude": "18.41428000",
    "longitude": "84.04463000",
    "isActive": true
  },
  {
    "name": "Narasapur",
    "state_name": "Andhra Pradesh",
    "country_name": "India",
    "latitude": "16.43425000",
    "longitude": "81.69845000",
    "isActive": true
  },
  {
    "name": "Narasaraopet",
    "state_name": "Andhra Pradesh",
    "country_name": "India",
    "latitude": "16.23488000",
    "longitude": "80.04927000",
    "isActive": true
  },
  {
    "name": "Narasingapuram",
    "state_name": "Andhra Pradesh",
    "country_name": "India",
    "latitude": "13.60759000",
    "longitude": "79.31652000",
    "isActive": true
  },
  {
    "name": "Narayanavanam",
    "state_name": "Andhra Pradesh",
    "country_name": "India",
    "latitude": "13.42565000",
    "longitude": "79.58881000",
    "isActive": true
  },
  {
    "name": "Narsipatnam",
    "state_name": "Andhra Pradesh",
    "country_name": "India",
    "latitude": "17.66709000",
    "longitude": "82.61245000",
    "isActive": true
  },
  {
    "name": "Nayudupet",
    "state_name": "Andhra Pradesh",
    "country_name": "India",
    "latitude": "13.90742000",
    "longitude": "79.89465000",
    "isActive": true
  },
  {
    "name": "Nellore",
    "state_name": "Andhra Pradesh",
    "country_name": "India",
    "latitude": "14.08333000",
    "longitude": "79.58333000",
    "isActive": true
  },
  {
    "name": "Nidadavole",
    "state_name": "Andhra Pradesh",
    "country_name": "India",
    "latitude": "16.90572000",
    "longitude": "81.67222000",
    "isActive": true
  },
  {
    "name": "Nuzvid",
    "state_name": "Andhra Pradesh",
    "country_name": "India",
    "latitude": "16.78854000",
    "longitude": "80.84593000",
    "isActive": true
  },
  {
    "name": "Ongole",
    "state_name": "Andhra Pradesh",
    "country_name": "India",
    "latitude": "15.50357000",
    "longitude": "80.04454000",
    "isActive": true
  },
  {
    "name": "Pakala",
    "state_name": "Andhra Pradesh",
    "country_name": "India",
    "latitude": "13.44903000",
    "longitude": "79.11493000",
    "isActive": true
  },
  {
    "name": "Palakollu",
    "state_name": "Andhra Pradesh",
    "country_name": "India",
    "latitude": "16.51670000",
    "longitude": "81.73000000",
    "isActive": true
  },
  {
    "name": "Palasa",
    "state_name": "Andhra Pradesh",
    "country_name": "India",
    "latitude": "18.77257000",
    "longitude": "84.41012000",
    "isActive": true
  },
  {
    "name": "Palkonda",
    "state_name": "Andhra Pradesh",
    "country_name": "India",
    "latitude": "18.60374000",
    "longitude": "83.75568000",
    "isActive": true
  },
  {
    "name": "Pallevada",
    "state_name": "Andhra Pradesh",
    "country_name": "India",
    "latitude": "16.57790000",
    "longitude": "81.29463000",
    "isActive": true
  },
  {
    "name": "Palmaner",
    "state_name": "Andhra Pradesh",
    "country_name": "India",
    "latitude": "13.20000000",
    "longitude": "78.74725000",
    "isActive": true
  },
  {
    "name": "Parlakimidi",
    "state_name": "Andhra Pradesh",
    "country_name": "India",
    "latitude": "18.78113000",
    "longitude": "84.08836000",
    "isActive": true
  },
  {
    "name": "Parvatipuram",
    "state_name": "Andhra Pradesh",
    "country_name": "India",
    "latitude": "18.78392000",
    "longitude": "83.42569000",
    "isActive": true
  },
  {
    "name": "Pavuluru",
    "state_name": "Andhra Pradesh",
    "country_name": "India",
    "latitude": "15.85292000",
    "longitude": "80.16468000",
    "isActive": true
  },
  {
    "name": "Pedana",
    "state_name": "Andhra Pradesh",
    "country_name": "India",
    "latitude": "16.25582000",
    "longitude": "81.14378000",
    "isActive": true
  },
  {
    "name": "pedda nakkalapalem",
    "state_name": "Andhra Pradesh",
    "country_name": "India",
    "latitude": "15.86680000",
    "longitude": "80.16202000",
    "isActive": true
  },
  {
    "name": "Peddapuram",
    "state_name": "Andhra Pradesh",
    "country_name": "India",
    "latitude": "17.07701000",
    "longitude": "82.13836000",
    "isActive": true
  },
  {
    "name": "Penugonda",
    "state_name": "Andhra Pradesh",
    "country_name": "India",
    "latitude": "16.65363000",
    "longitude": "81.74550000",
    "isActive": true
  },
  {
    "name": "Penukonda",
    "state_name": "Andhra Pradesh",
    "country_name": "India",
    "latitude": "14.08286000",
    "longitude": "77.59473000",
    "isActive": true
  },
  {
    "name": "Phirangipuram",
    "state_name": "Andhra Pradesh",
    "country_name": "India",
    "latitude": "16.29078000",
    "longitude": "80.26233000",
    "isActive": true
  },
  {
    "name": "Pippara",
    "state_name": "Andhra Pradesh",
    "country_name": "India",
    "latitude": "16.71667000",
    "longitude": "81.55000000",
    "isActive": true
  },
  {
    "name": "Pithapuram",
    "state_name": "Andhra Pradesh",
    "country_name": "India",
    "latitude": "17.11680000",
    "longitude": "82.25284000",
    "isActive": true
  },
  {
    "name": "Polavaram",
    "state_name": "Andhra Pradesh",
    "country_name": "India",
    "latitude": "17.24754000",
    "longitude": "81.64372000",
    "isActive": true
  },
  {
    "name": "Ponnur",
    "state_name": "Andhra Pradesh",
    "country_name": "India",
    "latitude": "16.07114000",
    "longitude": "80.54944000",
    "isActive": true
  },
  {
    "name": "Ponnuru",
    "state_name": "Andhra Pradesh",
    "country_name": "India",
    "latitude": "16.06547000",
    "longitude": "80.55203000",
    "isActive": true
  },
  {
    "name": "Prakasam",
    "state_name": "Andhra Pradesh",
    "country_name": "India",
    "latitude": "15.50000000",
    "longitude": "79.50000000",
    "isActive": true
  },
  {
    "name": "Proddatur",
    "state_name": "Andhra Pradesh",
    "country_name": "India",
    "latitude": "14.75020000",
    "longitude": "78.54813000",
    "isActive": true
  },
  {
    "name": "Pulivendla",
    "state_name": "Andhra Pradesh",
    "country_name": "India",
    "latitude": "14.42139000",
    "longitude": "78.22502000",
    "isActive": true
  },
  {
    "name": "Punganuru",
    "state_name": "Andhra Pradesh",
    "country_name": "India",
    "latitude": "13.36672000",
    "longitude": "78.57186000",
    "isActive": true
  },
  {
    "name": "Puttaparthi",
    "state_name": "Andhra Pradesh",
    "country_name": "India",
    "latitude": "14.16520000",
    "longitude": "77.81170000",
    "isActive": true
  },
  {
    "name": "Puttur",
    "state_name": "Andhra Pradesh",
    "country_name": "India",
    "latitude": "13.44189000",
    "longitude": "79.55314000",
    "isActive": true
  },
  {
    "name": "Rajahmundry",
    "state_name": "Andhra Pradesh",
    "country_name": "India",
    "latitude": "17.00517000",
    "longitude": "81.77784000",
    "isActive": true
  },
  {
    "name": "Ramachandrapuram",
    "state_name": "Andhra Pradesh",
    "country_name": "India",
    "latitude": "16.83636000",
    "longitude": "82.02871000",
    "isActive": true
  },
  {
    "name": "Ramanayyapeta",
    "state_name": "Andhra Pradesh",
    "country_name": "India",
    "latitude": "16.94516000",
    "longitude": "82.23850000",
    "isActive": true
  },
  {
    "name": "Ramapuram",
    "state_name": "Andhra Pradesh",
    "country_name": "India",
    "latitude": "15.28749000",
    "longitude": "77.86722000",
    "isActive": true
  },
  {
    "name": "Rampachodavaram",
    "state_name": "Andhra Pradesh",
    "country_name": "India",
    "latitude": "17.44088000",
    "longitude": "81.77558000",
    "isActive": true
  },
  {
    "name": "Rayachoti",
    "state_name": "Andhra Pradesh",
    "country_name": "India",
    "latitude": "14.05723000",
    "longitude": "78.75056000",
    "isActive": true
  },
  {
    "name": "Rayadrug",
    "state_name": "Andhra Pradesh",
    "country_name": "India",
    "latitude": "14.69971000",
    "longitude": "76.85241000",
    "isActive": true
  },
  {
    "name": "Razam",
    "state_name": "Andhra Pradesh",
    "country_name": "India",
    "latitude": "18.44909000",
    "longitude": "83.65957000",
    "isActive": true
  },
  {
    "name": "Razampeta",
    "state_name": "Andhra Pradesh",
    "country_name": "India",
    "latitude": "14.19544000",
    "longitude": "79.15896000",
    "isActive": true
  },
  {
    "name": "Razole",
    "state_name": "Andhra Pradesh",
    "country_name": "India",
    "latitude": "16.47608000",
    "longitude": "81.83912000",
    "isActive": true
  },
  {
    "name": "Renigunta",
    "state_name": "Andhra Pradesh",
    "country_name": "India",
    "latitude": "13.65143000",
    "longitude": "79.51256000",
    "isActive": true
  },
  {
    "name": "Repalle",
    "state_name": "Andhra Pradesh",
    "country_name": "India",
    "latitude": "16.01840000",
    "longitude": "80.82958000",
    "isActive": true
  },
  {
    "name": "Salur",
    "state_name": "Andhra Pradesh",
    "country_name": "India",
    "latitude": "18.51716000",
    "longitude": "83.20548000",
    "isActive": true
  },
  {
    "name": "Samalkot",
    "state_name": "Andhra Pradesh",
    "country_name": "India",
    "latitude": "17.05675000",
    "longitude": "82.17639000",
    "isActive": true
  },
  {
    "name": "Sattenapalle",
    "state_name": "Andhra Pradesh",
    "country_name": "India",
    "latitude": "16.39381000",
    "longitude": "80.15221000",
    "isActive": true
  },
  {
    "name": "Singarayakonda",
    "state_name": "Andhra Pradesh",
    "country_name": "India",
    "latitude": "15.23046000",
    "longitude": "80.02794000",
    "isActive": true
  },
  {
    "name": "Sompeta",
    "state_name": "Andhra Pradesh",
    "country_name": "India",
    "latitude": "18.94419000",
    "longitude": "84.58449000",
    "isActive": true
  },
  {
    "name": "Srikakulam",
    "state_name": "Andhra Pradesh",
    "country_name": "India",
    "latitude": "18.29890000",
    "longitude": "83.89751000",
    "isActive": true
  },
  {
    "name": "Srisailain",
    "state_name": "Andhra Pradesh",
    "country_name": "India",
    "latitude": "16.07217000",
    "longitude": "78.86816000",
    "isActive": true
  },
  {
    "name": "Suluru",
    "state_name": "Andhra Pradesh",
    "country_name": "India",
    "latitude": "13.70000000",
    "longitude": "80.01667000",
    "isActive": true
  },
  {
    "name": "Tadepalle",
    "state_name": "Andhra Pradesh",
    "country_name": "India",
    "latitude": "16.48333000",
    "longitude": "80.60000000",
    "isActive": true
  },
  {
    "name": "Tadepallegudem",
    "state_name": "Andhra Pradesh",
    "country_name": "India",
    "latitude": "16.81467000",
    "longitude": "81.52717000",
    "isActive": true
  },
  {
    "name": "Tadpatri",
    "state_name": "Andhra Pradesh",
    "country_name": "India",
    "latitude": "14.90832000",
    "longitude": "78.01031000",
    "isActive": true
  },
  {
    "name": "Tanuku",
    "state_name": "Andhra Pradesh",
    "country_name": "India",
    "latitude": "16.75438000",
    "longitude": "81.68143000",
    "isActive": true
  },
  {
    "name": "Tekkali",
    "state_name": "Andhra Pradesh",
    "country_name": "India",
    "latitude": "18.60570000",
    "longitude": "84.23546000",
    "isActive": true
  },
  {
    "name": "Tirumala",
    "state_name": "Andhra Pradesh",
    "country_name": "India",
    "latitude": "13.68333000",
    "longitude": "79.35000000",
    "isActive": true
  },
  {
    "name": "Tirupati",
    "state_name": "Andhra Pradesh",
    "country_name": "India",
    "latitude": "13.63551000",
    "longitude": "79.41989000",
    "isActive": true
  },
  {
    "name": "Tuni",
    "state_name": "Andhra Pradesh",
    "country_name": "India",
    "latitude": "17.35905000",
    "longitude": "82.54607000",
    "isActive": true
  },
  {
    "name": "Uravakonda",
    "state_name": "Andhra Pradesh",
    "country_name": "India",
    "latitude": "14.94348000",
    "longitude": "77.25494000",
    "isActive": true
  },
  {
    "name": "vadlamuru",
    "state_name": "Andhra Pradesh",
    "country_name": "India",
    "latitude": "17.09545000",
    "longitude": "82.16565000",
    "isActive": true
  },
  {
    "name": "Vadlapudi",
    "state_name": "Andhra Pradesh",
    "country_name": "India",
    "latitude": "14.31119000",
    "longitude": "79.80430000",
    "isActive": true
  },
  {
    "name": "Venkatagiri",
    "state_name": "Andhra Pradesh",
    "country_name": "India",
    "latitude": "13.96005000",
    "longitude": "79.58032000",
    "isActive": true
  },
  {
    "name": "Vepagunta",
    "state_name": "Andhra Pradesh",
    "country_name": "India",
    "latitude": "17.77844000",
    "longitude": "83.21577000",
    "isActive": true
  },
  {
    "name": "Vetapalem",
    "state_name": "Andhra Pradesh",
    "country_name": "India",
    "latitude": "15.78502000",
    "longitude": "80.30663000",
    "isActive": true
  },
  {
    "name": "Vijayawada",
    "state_name": "Andhra Pradesh",
    "country_name": "India",
    "latitude": "16.50745000",
    "longitude": "80.64660000",
    "isActive": true
  },
  {
    "name": "Vinukonda",
    "state_name": "Andhra Pradesh",
    "country_name": "India",
    "latitude": "16.05310000",
    "longitude": "79.73964000",
    "isActive": true
  },
  {
    "name": "Visakhapatnam",
    "state_name": "Andhra Pradesh",
    "country_name": "India",
    "latitude": "17.68009000",
    "longitude": "83.20161000",
    "isActive": true
  },
  {
    "name": "Vizianagaram",
    "state_name": "Andhra Pradesh",
    "country_name": "India",
    "latitude": "18.11692000",
    "longitude": "83.41148000",
    "isActive": true
  },
  {
    "name": "Vizianagaram District",
    "state_name": "Andhra Pradesh",
    "country_name": "India",
    "latitude": "18.41102000",
    "longitude": "83.37677000",
    "isActive": true
  },
  {
    "name": "Vuyyuru",
    "state_name": "Andhra Pradesh",
    "country_name": "India",
    "latitude": "16.36307000",
    "longitude": "80.84406000",
    "isActive": true
  },
  {
    "name": "West Godavari",
    "state_name": "Andhra Pradesh",
    "country_name": "India",
    "latitude": "17.00000000",
    "longitude": "81.16667000",
    "isActive": true
  },
  {
    "name": "Yanam",
    "state_name": "Andhra Pradesh",
    "country_name": "India",
    "latitude": "16.73308000",
    "longitude": "82.21364000",
    "isActive": true
  },
  {
    "name": "Yanamalakuduru",
    "state_name": "Andhra Pradesh",
    "country_name": "India",
    "latitude": "16.48531000",
    "longitude": "80.66746000",
    "isActive": true
  },
  {
    "name": "Yarada",
    "state_name": "Andhra Pradesh",
    "country_name": "India",
    "latitude": "17.65872000",
    "longitude": "83.27419000",
    "isActive": true
  },
  {
    "name": "Along",
    "state_name": "Arunachal Pradesh",
    "country_name": "India",
    "latitude": "28.16951000",
    "longitude": "94.80060000",
    "isActive": true
  },
  {
    "name": "Anjaw",
    "state_name": "Arunachal Pradesh",
    "country_name": "India",
    "latitude": "28.06549000",
    "longitude": "96.82878000",
    "isActive": true
  },
  {
    "name": "Basar",
    "state_name": "Arunachal Pradesh",
    "country_name": "India",
    "latitude": "27.99008000",
    "longitude": "94.69451000",
    "isActive": true
  },
  {
    "name": "Bomdila",
    "state_name": "Arunachal Pradesh",
    "country_name": "India",
    "latitude": "27.26475000",
    "longitude": "92.42472000",
    "isActive": true
  },
  {
    "name": "Changlang",
    "state_name": "Arunachal Pradesh",
    "country_name": "India",
    "latitude": "27.36265000",
    "longitude": "96.34518000",
    "isActive": true
  },
  {
    "name": "Dibang Valley",
    "state_name": "Arunachal Pradesh",
    "country_name": "India",
    "latitude": "28.70000000",
    "longitude": "95.70000000",
    "isActive": true
  },
  {
    "name": "East Kameng",
    "state_name": "Arunachal Pradesh",
    "country_name": "India",
    "latitude": "27.30000000",
    "longitude": "93.05000000",
    "isActive": true
  },
  {
    "name": "East Siang",
    "state_name": "Arunachal Pradesh",
    "country_name": "India",
    "latitude": "28.12379000",
    "longitude": "95.16339000",
    "isActive": true
  },
  {
    "name": "Hayuliang",
    "state_name": "Arunachal Pradesh",
    "country_name": "India",
    "latitude": "28.07301000",
    "longitude": "96.54305000",
    "isActive": true
  },
  {
    "name": "Itanagar",
    "state_name": "Arunachal Pradesh",
    "country_name": "India",
    "latitude": "27.08694000",
    "longitude": "93.60987000",
    "isActive": true
  },
  {
    "name": "Khonsa",
    "state_name": "Arunachal Pradesh",
    "country_name": "India",
    "latitude": "27.01667000",
    "longitude": "95.56667000",
    "isActive": true
  },
  {
    "name": "Kurung Kumey",
    "state_name": "Arunachal Pradesh",
    "country_name": "India",
    "latitude": "27.99983000",
    "longitude": "93.39240000",
    "isActive": true
  },
  {
    "name": "Lohit District",
    "state_name": "Arunachal Pradesh",
    "country_name": "India",
    "latitude": "27.84012000",
    "longitude": "96.19521000",
    "isActive": true
  },
  {
    "name": "Lower Dibang Valley",
    "state_name": "Arunachal Pradesh",
    "country_name": "India",
    "latitude": "28.37258000",
    "longitude": "95.88040000",
    "isActive": true
  },
  {
    "name": "Lower Subansiri",
    "state_name": "Arunachal Pradesh",
    "country_name": "India",
    "latitude": "27.62554000",
    "longitude": "93.93908000",
    "isActive": true
  },
  {
    "name": "Margherita",
    "state_name": "Arunachal Pradesh",
    "country_name": "India",
    "latitude": "27.28482000",
    "longitude": "95.66796000",
    "isActive": true
  },
  {
    "name": "Naharlagun",
    "state_name": "Arunachal Pradesh",
    "country_name": "India",
    "latitude": "27.10467000",
    "longitude": "93.69518000",
    "isActive": true
  },
  {
    "name": "Pasighat",
    "state_name": "Arunachal Pradesh",
    "country_name": "India",
    "latitude": "28.06631000",
    "longitude": "95.32678000",
    "isActive": true
  },
  {
    "name": "Tawang",
    "state_name": "Arunachal Pradesh",
    "country_name": "India",
    "latitude": "27.57417000",
    "longitude": "91.92437000",
    "isActive": true
  },
  {
    "name": "Tezu",
    "state_name": "Arunachal Pradesh",
    "country_name": "India",
    "latitude": "27.91256000",
    "longitude": "96.12882000",
    "isActive": true
  },
  {
    "name": "Tirap",
    "state_name": "Arunachal Pradesh",
    "country_name": "India",
    "latitude": "27.01917000",
    "longitude": "95.51788000",
    "isActive": true
  },
  {
    "name": "Upper Siang",
    "state_name": "Arunachal Pradesh",
    "country_name": "India",
    "latitude": "28.83355000",
    "longitude": "94.91806000",
    "isActive": true
  },
  {
    "name": "Upper Subansiri",
    "state_name": "Arunachal Pradesh",
    "country_name": "India",
    "latitude": "28.30000000",
    "longitude": "94.00000000",
    "isActive": true
  },
  {
    "name": "West Kameng",
    "state_name": "Arunachal Pradesh",
    "country_name": "India",
    "latitude": "27.40000000",
    "longitude": "92.35000000",
    "isActive": true
  },
  {
    "name": "West Siang",
    "state_name": "Arunachal Pradesh",
    "country_name": "India",
    "latitude": "28.40000000",
    "longitude": "94.55000000",
    "isActive": true
  },
  {
    "name": "Ziro",
    "state_name": "Arunachal Pradesh",
    "country_name": "India",
    "latitude": "27.59497000",
    "longitude": "93.83854000",
    "isActive": true
  },
  {
    "name": "Abhayapuri",
    "state_name": "Assam",
    "country_name": "India",
    "latitude": "26.32255000",
    "longitude": "90.68526000",
    "isActive": true
  },
  {
    "name": "Amguri",
    "state_name": "Assam",
    "country_name": "India",
    "latitude": "26.81482000",
    "longitude": "94.52614000",
    "isActive": true
  },
  {
    "name": "Badarpur",
    "state_name": "Assam",
    "country_name": "India",
    "latitude": "24.86852000",
    "longitude": "92.59606000",
    "isActive": true
  },
  {
    "name": "Baksa",
    "state_name": "Assam",
    "country_name": "India",
    "latitude": "26.69804000",
    "longitude": "91.15142000",
    "isActive": true
  },
  {
    "name": "Barpathar",
    "state_name": "Assam",
    "country_name": "India",
    "latitude": "26.28709000",
    "longitude": "93.88844000",
    "isActive": true
  },
  {
    "name": "Barpeta",
    "state_name": "Assam",
    "country_name": "India",
    "latitude": "26.47104000",
    "longitude": "91.03080000",
    "isActive": true
  },
  {
    "name": "Barpeta Road",
    "state_name": "Assam",
    "country_name": "India",
    "latitude": "26.50284000",
    "longitude": "90.96937000",
    "isActive": true
  },
  {
    "name": "Basugaon",
    "state_name": "Assam",
    "country_name": "India",
    "latitude": "26.46742000",
    "longitude": "90.41951000",
    "isActive": true
  },
  {
    "name": "Bihpuriagaon",
    "state_name": "Assam",
    "country_name": "India",
    "latitude": "27.01718000",
    "longitude": "93.91673000",
    "isActive": true
  },
  {
    "name": "Bijni",
    "state_name": "Assam",
    "country_name": "India",
    "latitude": "26.49588000",
    "longitude": "90.70298000",
    "isActive": true
  },
  {
    "name": "Bilasipara",
    "state_name": "Assam",
    "country_name": "India",
    "latitude": "26.23285000",
    "longitude": "90.23410000",
    "isActive": true
  },
  {
    "name": "Bokajan",
    "state_name": "Assam",
    "country_name": "India",
    "latitude": "26.02131000",
    "longitude": "93.77945000",
    "isActive": true
  },
  {
    "name": "Bokakhat",
    "state_name": "Assam",
    "country_name": "India",
    "latitude": "26.64018000",
    "longitude": "93.60052000",
    "isActive": true
  },
  {
    "name": "Bongaigaon",
    "state_name": "Assam",
    "country_name": "India",
    "latitude": "26.46030000",
    "longitude": "90.64640000",
    "isActive": true
  },
  {
    "name": "Cachar",
    "state_name": "Assam",
    "country_name": "India",
    "latitude": "24.78213000",
    "longitude": "92.85771000",
    "isActive": true
  },
  {
    "name": "Chabua",
    "state_name": "Assam",
    "country_name": "India",
    "latitude": "27.48253000",
    "longitude": "95.17451000",
    "isActive": true
  },
  {
    "name": "Chapar",
    "state_name": "Assam",
    "country_name": "India",
    "latitude": "26.27266000",
    "longitude": "90.44556000",
    "isActive": true
  },
  {
    "name": "Chirang",
    "state_name": "Assam",
    "country_name": "India",
    "latitude": "26.52527000",
    "longitude": "90.49066000",
    "isActive": true
  },
  {
    "name": "Darrang",
    "state_name": "Assam",
    "country_name": "India",
    "latitude": "26.51195000",
    "longitude": "92.16843000",
    "isActive": true
  },
  {
    "name": "Dergaon",
    "state_name": "Assam",
    "country_name": "India",
    "latitude": "26.70000000",
    "longitude": "93.96667000",
    "isActive": true
  },
  {
    "name": "Dhekiajuli",
    "state_name": "Assam",
    "country_name": "India",
    "latitude": "26.70367000",
    "longitude": "92.47808000",
    "isActive": true
  },
  {
    "name": "Dhemaji",
    "state_name": "Assam",
    "country_name": "India",
    "latitude": "27.60910000",
    "longitude": "94.79420000",
    "isActive": true
  },
  {
    "name": "Dhing",
    "state_name": "Assam",
    "country_name": "India",
    "latitude": "26.46793000",
    "longitude": "92.47336000",
    "isActive": true
  },
  {
    "name": "Dhubri",
    "state_name": "Assam",
    "country_name": "India",
    "latitude": "26.06749000",
    "longitude": "90.02238000",
    "isActive": true
  },
  {
    "name": "Dibrugarh",
    "state_name": "Assam",
    "country_name": "India",
    "latitude": "27.50000000",
    "longitude": "95.00000000",
    "isActive": true
  },
  {
    "name": "Digboi",
    "state_name": "Assam",
    "country_name": "India",
    "latitude": "27.39321000",
    "longitude": "95.61839000",
    "isActive": true
  },
  {
    "name": "Dima Hasao District",
    "state_name": "Assam",
    "country_name": "India",
    "latitude": "25.50000000",
    "longitude": "93.00000000",
    "isActive": true
  },
  {
    "name": "Diphu",
    "state_name": "Assam",
    "country_name": "India",
    "latitude": "25.84341000",
    "longitude": "93.43116000",
    "isActive": true
  },
  {
    "name": "Dispur",
    "state_name": "Assam",
    "country_name": "India",
    "latitude": "26.13564000",
    "longitude": "91.80069000",
    "isActive": true
  },
  {
    "name": "Duliagaon",
    "state_name": "Assam",
    "country_name": "India",
    "latitude": "27.37227000",
    "longitude": "95.30754000",
    "isActive": true
  },
  {
    "name": "Dum Duma",
    "state_name": "Assam",
    "country_name": "India",
    "latitude": "27.56884000",
    "longitude": "95.55664000",
    "isActive": true
  },
  {
    "name": "Gauripur",
    "state_name": "Assam",
    "country_name": "India",
    "latitude": "26.08334000",
    "longitude": "89.96118000",
    "isActive": true
  },
  {
    "name": "Goalpara",
    "state_name": "Assam",
    "country_name": "India",
    "latitude": "26.12791000",
    "longitude": "90.60974000",
    "isActive": true
  },
  {
    "name": "Gohpur",
    "state_name": "Assam",
    "country_name": "India",
    "latitude": "26.88184000",
    "longitude": "93.61560000",
    "isActive": true
  },
  {
    "name": "Golaghat",
    "state_name": "Assam",
    "country_name": "India",
    "latitude": "26.40920000",
    "longitude": "93.91193000",
    "isActive": true
  },
  {
    "name": "Golakganj",
    "state_name": "Assam",
    "country_name": "India",
    "latitude": "26.10216000",
    "longitude": "89.82275000",
    "isActive": true
  },
  {
    "name": "Goshaingaon",
    "state_name": "Assam",
    "country_name": "India",
    "latitude": "26.43946000",
    "longitude": "89.96307000",
    "isActive": true
  },
  {
    "name": "Guwahati",
    "state_name": "Assam",
    "country_name": "India",
    "latitude": "26.18440000",
    "longitude": "91.74580000",
    "isActive": true
  },
  {
    "name": "Haflong",
    "state_name": "Assam",
    "country_name": "India",
    "latitude": "25.16478000",
    "longitude": "93.01744000",
    "isActive": true
  },
  {
    "name": "Hailakandi",
    "state_name": "Assam",
    "country_name": "India",
    "latitude": "24.50170000",
    "longitude": "92.60069000",
    "isActive": true
  },
  {
    "name": "Hajo",
    "state_name": "Assam",
    "country_name": "India",
    "latitude": "26.24520000",
    "longitude": "91.52525000",
    "isActive": true
  },
  {
    "name": "Hojai",
    "state_name": "Assam",
    "country_name": "India",
    "latitude": "26.00281000",
    "longitude": "92.85605000",
    "isActive": true
  },
  {
    "name": "Howli",
    "state_name": "Assam",
    "country_name": "India",
    "latitude": "26.42237000",
    "longitude": "90.98004000",
    "isActive": true
  },
  {
    "name": "Jogighopa",
    "state_name": "Assam",
    "country_name": "India",
    "latitude": "26.22646000",
    "longitude": "90.57247000",
    "isActive": true
  },
  {
    "name": "Jorhat",
    "state_name": "Assam",
    "country_name": "India",
    "latitude": "26.80000000",
    "longitude": "94.26000000",
    "isActive": true
  },
  {
    "name": "Kamrup",
    "state_name": "Assam",
    "country_name": "India",
    "latitude": "26.22322000",
    "longitude": "91.65344000",
    "isActive": true
  },
  {
    "name": "Kamrup Metropolitan",
    "state_name": "Assam",
    "country_name": "India",
    "latitude": "26.05375000",
    "longitude": "92.00763000",
    "isActive": true
  },
  {
    "name": "Karbi Anglong",
    "state_name": "Assam",
    "country_name": "India",
    "latitude": "26.00000000",
    "longitude": "93.50000000",
    "isActive": true
  },
  {
    "name": "Karimganj",
    "state_name": "Assam",
    "country_name": "India",
    "latitude": "24.60000000",
    "longitude": "92.40000000",
    "isActive": true
  },
  {
    "name": "Kharupatia",
    "state_name": "Assam",
    "country_name": "India",
    "latitude": "26.51839000",
    "longitude": "92.14722000",
    "isActive": true
  },
  {
    "name": "Kokrajhar",
    "state_name": "Assam",
    "country_name": "India",
    "latitude": "26.60000000",
    "longitude": "90.20000000",
    "isActive": true
  },
  {
    "name": "Lakhimpur",
    "state_name": "Assam",
    "country_name": "India",
    "latitude": "27.35000000",
    "longitude": "94.25000000",
    "isActive": true
  },
  {
    "name": "Lakhipur",
    "state_name": "Assam",
    "country_name": "India",
    "latitude": "24.79281000",
    "longitude": "93.00910000",
    "isActive": true
  },
  {
    "name": "Lala",
    "state_name": "Assam",
    "country_name": "India",
    "latitude": "24.55418000",
    "longitude": "92.61592000",
    "isActive": true
  },
  {
    "name": "Lumding Railway Colony",
    "state_name": "Assam",
    "country_name": "India",
    "latitude": "25.74903000",
    "longitude": "93.16998000",
    "isActive": true
  },
  {
    "name": "Mahur",
    "state_name": "Assam",
    "country_name": "India",
    "latitude": "25.18305000",
    "longitude": "93.11342000",
    "isActive": true
  },
  {
    "name": "Maibong",
    "state_name": "Assam",
    "country_name": "India",
    "latitude": "25.30125000",
    "longitude": "93.13811000",
    "isActive": true
  },
  {
    "name": "Makum",
    "state_name": "Assam",
    "country_name": "India",
    "latitude": "27.48652000",
    "longitude": "95.43646000",
    "isActive": true
  },
  {
    "name": "Mangaldai",
    "state_name": "Assam",
    "country_name": "India",
    "latitude": "26.44212000",
    "longitude": "92.03047000",
    "isActive": true
  },
  {
    "name": "Mariani",
    "state_name": "Assam",
    "country_name": "India",
    "latitude": "26.65725000",
    "longitude": "94.31529000",
    "isActive": true
  },
  {
    "name": "Moranha",
    "state_name": "Assam",
    "country_name": "India",
    "latitude": "27.18735000",
    "longitude": "94.91557000",
    "isActive": true
  },
  {
    "name": "Morigaon",
    "state_name": "Assam",
    "country_name": "India",
    "latitude": "26.25213000",
    "longitude": "92.34238000",
    "isActive": true
  },
  {
    "name": "Nagaon",
    "state_name": "Assam",
    "country_name": "India",
    "latitude": "26.35037000",
    "longitude": "92.69225000",
    "isActive": true
  },
  {
    "name": "Nahorkatiya",
    "state_name": "Assam",
    "country_name": "India",
    "latitude": "27.28912000",
    "longitude": "95.34180000",
    "isActive": true
  },
  {
    "name": "Nalbari",
    "state_name": "Assam",
    "country_name": "India",
    "latitude": "26.50000000",
    "longitude": "91.40000000",
    "isActive": true
  },
  {
    "name": "Namrup",
    "state_name": "Assam",
    "country_name": "India",
    "latitude": "27.19395000",
    "longitude": "95.31929000",
    "isActive": true
  },
  {
    "name": "Nazira",
    "state_name": "Assam",
    "country_name": "India",
    "latitude": "26.91649000",
    "longitude": "94.73611000",
    "isActive": true
  },
  {
    "name": "North Guwahati",
    "state_name": "Assam",
    "country_name": "India",
    "latitude": "26.19749000",
    "longitude": "91.72020000",
    "isActive": true
  },
  {
    "name": "North Lakhimpur",
    "state_name": "Assam",
    "country_name": "India",
    "latitude": "27.23517000",
    "longitude": "94.10357000",
    "isActive": true
  },
  {
    "name": "Numaligarh",
    "state_name": "Assam",
    "country_name": "India",
    "latitude": "26.62249000",
    "longitude": "93.72225000",
    "isActive": true
  },
  {
    "name": "Palasbari",
    "state_name": "Assam",
    "country_name": "India",
    "latitude": "26.12388000",
    "longitude": "91.53974000",
    "isActive": true
  },
  {
    "name": "Raha",
    "state_name": "Assam",
    "country_name": "India",
    "latitude": "26.23333000",
    "longitude": "92.51667000",
    "isActive": true
  },
  {
    "name": "Rangapara",
    "state_name": "Assam",
    "country_name": "India",
    "latitude": "26.83772000",
    "longitude": "92.66876000",
    "isActive": true
  },
  {
    "name": "Rangia",
    "state_name": "Assam",
    "country_name": "India",
    "latitude": "26.44931000",
    "longitude": "91.61356000",
    "isActive": true
  },
  {
    "name": "Sapatgram",
    "state_name": "Assam",
    "country_name": "India",
    "latitude": "26.33732000",
    "longitude": "90.12360000",
    "isActive": true
  },
  {
    "name": "Sarupathar",
    "state_name": "Assam",
    "country_name": "India",
    "latitude": "26.20600000",
    "longitude": "96.81000000",
    "isActive": true
  },
  {
    "name": "Sibsagar",
    "state_name": "Assam",
    "country_name": "India",
    "latitude": "26.98427000",
    "longitude": "94.63784000",
    "isActive": true
  },
  {
    "name": "Silapathar",
    "state_name": "Assam",
    "country_name": "India",
    "latitude": "27.59441000",
    "longitude": "94.72402000",
    "isActive": true
  },
  {
    "name": "Silchar",
    "state_name": "Assam",
    "country_name": "India",
    "latitude": "24.82733000",
    "longitude": "92.79787000",
    "isActive": true
  },
  {
    "name": "Soalkuchi",
    "state_name": "Assam",
    "country_name": "India",
    "latitude": "26.16806000",
    "longitude": "91.57111000",
    "isActive": true
  },
  {
    "name": "Sonari",
    "state_name": "Assam",
    "country_name": "India",
    "latitude": "27.02462000",
    "longitude": "95.01629000",
    "isActive": true
  },
  {
    "name": "Sonitpur",
    "state_name": "Assam",
    "country_name": "India",
    "latitude": "26.76748000",
    "longitude": "92.96425000",
    "isActive": true
  },
  {
    "name": "Sorbhog",
    "state_name": "Assam",
    "country_name": "India",
    "latitude": "26.48612000",
    "longitude": "90.88590000",
    "isActive": true
  },
  {
    "name": "Tezpur",
    "state_name": "Assam",
    "country_name": "India",
    "latitude": "26.63333000",
    "longitude": "92.80000000",
    "isActive": true
  },
  {
    "name": "Tinsukia",
    "state_name": "Assam",
    "country_name": "India",
    "latitude": "27.60000000",
    "longitude": "95.60000000",
    "isActive": true
  },
  {
    "name": "Titabar",
    "state_name": "Assam",
    "country_name": "India",
    "latitude": "26.60140000",
    "longitude": "94.20386000",
    "isActive": true
  },
  {
    "name": "Udalguri",
    "state_name": "Assam",
    "country_name": "India",
    "latitude": "26.75367000",
    "longitude": "92.10215000",
    "isActive": true
  },
  {
    "name": "Amarpur",
    "state_name": "Bihar",
    "country_name": "India",
    "latitude": "25.03967000",
    "longitude": "86.90247000",
    "isActive": true
  },
  {
    "name": "Araria",
    "state_name": "Bihar",
    "country_name": "India",
    "latitude": "26.20000000",
    "longitude": "87.40000000",
    "isActive": true
  },
  {
    "name": "Arrah",
    "state_name": "Bihar",
    "country_name": "India",
    "latitude": "25.55629000",
    "longitude": "84.66335000",
    "isActive": true
  },
  {
    "name": "Arwal",
    "state_name": "Bihar",
    "country_name": "India",
    "latitude": "25.16158000",
    "longitude": "84.69040000",
    "isActive": true
  },
  {
    "name": "Asarganj",
    "state_name": "Bihar",
    "country_name": "India",
    "latitude": "25.15046000",
    "longitude": "86.68639000",
    "isActive": true
  },
  {
    "name": "Aurangabad",
    "state_name": "Bihar",
    "country_name": "India",
    "latitude": "24.75204000",
    "longitude": "84.37420000",
    "isActive": true
  },
  {
    "name": "Bagaha",
    "state_name": "Bihar",
    "country_name": "India",
    "latitude": "27.09918000",
    "longitude": "84.09003000",
    "isActive": true
  },
  {
    "name": "Bahadurganj",
    "state_name": "Bihar",
    "country_name": "India",
    "latitude": "26.26172000",
    "longitude": "87.82443000",
    "isActive": true
  },
  {
    "name": "Bairagnia",
    "state_name": "Bihar",
    "country_name": "India",
    "latitude": "26.74063000",
    "longitude": "85.27323000",
    "isActive": true
  },
  {
    "name": "Baisi",
    "state_name": "Bihar",
    "country_name": "India",
    "latitude": "25.86302000",
    "longitude": "87.74487000",
    "isActive": true
  },
  {
    "name": "Bakhtiyarpur",
    "state_name": "Bihar",
    "country_name": "India",
    "latitude": "25.46179000",
    "longitude": "85.53179000",
    "isActive": true
  },
  {
    "name": "Bangaon",
    "state_name": "Bihar",
    "country_name": "India",
    "latitude": "25.86728000",
    "longitude": "86.51152000",
    "isActive": true
  },
  {
    "name": "Banka",
    "state_name": "Bihar",
    "country_name": "India",
    "latitude": "24.89214000",
    "longitude": "86.98425000",
    "isActive": true
  },
  {
    "name": "Banmankhi",
    "state_name": "Bihar",
    "country_name": "India",
    "latitude": "25.88857000",
    "longitude": "87.19421000",
    "isActive": true
  },
  {
    "name": "Bar Bigha",
    "state_name": "Bihar",
    "country_name": "India",
    "latitude": "25.21855000",
    "longitude": "85.73320000",
    "isActive": true
  },
  {
    "name": "Barauli",
    "state_name": "Bihar",
    "country_name": "India",
    "latitude": "26.38109000",
    "longitude": "84.58648000",
    "isActive": true
  },
  {
    "name": "Barh",
    "state_name": "Bihar",
    "country_name": "India",
    "latitude": "25.48339000",
    "longitude": "85.70928000",
    "isActive": true
  },
  {
    "name": "Barhiya",
    "state_name": "Bihar",
    "country_name": "India",
    "latitude": "25.28814000",
    "longitude": "86.02055000",
    "isActive": true
  },
  {
    "name": "Bariarpur",
    "state_name": "Bihar",
    "country_name": "India",
    "latitude": "25.28791000",
    "longitude": "86.57643000",
    "isActive": true
  },
  {
    "name": "Baruni",
    "state_name": "Bihar",
    "country_name": "India",
    "latitude": "25.47509000",
    "longitude": "85.96813000",
    "isActive": true
  },
  {
    "name": "Begusarai",
    "state_name": "Bihar",
    "country_name": "India",
    "latitude": "25.41853000",
    "longitude": "86.13389000",
    "isActive": true
  },
  {
    "name": "Belsand",
    "state_name": "Bihar",
    "country_name": "India",
    "latitude": "26.44365000",
    "longitude": "85.40076000",
    "isActive": true
  },
  {
    "name": "Bettiah",
    "state_name": "Bihar",
    "country_name": "India",
    "latitude": "26.80229000",
    "longitude": "84.50311000",
    "isActive": true
  },
  {
    "name": "Bhabhua",
    "state_name": "Bihar",
    "country_name": "India",
    "latitude": "25.04049000",
    "longitude": "83.60749000",
    "isActive": true
  },
  {
    "name": "Bhagalpur",
    "state_name": "Bihar",
    "country_name": "India",
    "latitude": "25.29023000",
    "longitude": "87.06665000",
    "isActive": true
  },
  {
    "name": "Bhagirathpur",
    "state_name": "Bihar",
    "country_name": "India",
    "latitude": "26.26950000",
    "longitude": "86.06346000",
    "isActive": true
  },
  {
    "name": "Bhawanipur",
    "state_name": "Bihar",
    "country_name": "India",
    "latitude": "26.45352000",
    "longitude": "87.02744000",
    "isActive": true
  },
  {
    "name": "Bhojpur",
    "state_name": "Bihar",
    "country_name": "India",
    "latitude": "25.30886000",
    "longitude": "84.44504000",
    "isActive": true
  },
  {
    "name": "Bihar Sharif",
    "state_name": "Bihar",
    "country_name": "India",
    "latitude": "25.20084000",
    "longitude": "85.52389000",
    "isActive": true
  },
  {
    "name": "Bihariganj",
    "state_name": "Bihar",
    "country_name": "India",
    "latitude": "25.73415000",
    "longitude": "86.98837000",
    "isActive": true
  },
  {
    "name": "Bikramganj",
    "state_name": "Bihar",
    "country_name": "India",
    "latitude": "25.21073000",
    "longitude": "84.25508000",
    "isActive": true
  },
  {
    "name": "Birpur",
    "state_name": "Bihar",
    "country_name": "India",
    "latitude": "26.50823000",
    "longitude": "87.01194000",
    "isActive": true
  },
  {
    "name": "Buddh Gaya",
    "state_name": "Bihar",
    "country_name": "India",
    "latitude": "24.69808000",
    "longitude": "84.98690000",
    "isActive": true
  },
  {
    "name": "Buxar",
    "state_name": "Bihar",
    "country_name": "India",
    "latitude": "25.50000000",
    "longitude": "84.10000000",
    "isActive": true
  },
  {
    "name": "Chakia",
    "state_name": "Bihar",
    "country_name": "India",
    "latitude": "26.41598000",
    "longitude": "85.04665000",
    "isActive": true
  },
  {
    "name": "Chapra",
    "state_name": "Bihar",
    "country_name": "India",
    "latitude": "25.78031000",
    "longitude": "84.74709000",
    "isActive": true
  },
  {
    "name": "Chhatapur",
    "state_name": "Bihar",
    "country_name": "India",
    "latitude": "26.21965000",
    "longitude": "87.00479000",
    "isActive": true
  },
  {
    "name": "Colgong",
    "state_name": "Bihar",
    "country_name": "India",
    "latitude": "25.26328000",
    "longitude": "87.23264000",
    "isActive": true
  },
  {
    "name": "Dalsingh Sarai",
    "state_name": "Bihar",
    "country_name": "India",
    "latitude": "25.66795000",
    "longitude": "85.83636000",
    "isActive": true
  },
  {
    "name": "Darbhanga",
    "state_name": "Bihar",
    "country_name": "India",
    "latitude": "26.00000000",
    "longitude": "86.00000000",
    "isActive": true
  },
  {
    "name": "Daudnagar",
    "state_name": "Bihar",
    "country_name": "India",
    "latitude": "25.03473000",
    "longitude": "84.40095000",
    "isActive": true
  },
  {
    "name": "Dehri",
    "state_name": "Bihar",
    "country_name": "India",
    "latitude": "24.90247000",
    "longitude": "84.18217000",
    "isActive": true
  },
  {
    "name": "Dhaka",
    "state_name": "Bihar",
    "country_name": "India",
    "latitude": "26.67479000",
    "longitude": "85.16698000",
    "isActive": true
  },
  {
    "name": "Dighwara",
    "state_name": "Bihar",
    "country_name": "India",
    "latitude": "25.74434000",
    "longitude": "85.01003000",
    "isActive": true
  },
  {
    "name": "Dinapore",
    "state_name": "Bihar",
    "country_name": "India",
    "latitude": "25.63705000",
    "longitude": "85.04794000",
    "isActive": true
  },
  {
    "name": "Dumra",
    "state_name": "Bihar",
    "country_name": "India",
    "latitude": "26.56708000",
    "longitude": "85.52040000",
    "isActive": true
  },
  {
    "name": "Dumraon",
    "state_name": "Bihar",
    "country_name": "India",
    "latitude": "25.55265000",
    "longitude": "84.15149000",
    "isActive": true
  },
  {
    "name": "Fatwa",
    "state_name": "Bihar",
    "country_name": "India",
    "latitude": "25.50958000",
    "longitude": "85.30504000",
    "isActive": true
  },
  {
    "name": "Forbesganj",
    "state_name": "Bihar",
    "country_name": "India",
    "latitude": "26.30253000",
    "longitude": "87.26556000",
    "isActive": true
  },
  {
    "name": "Gaya",
    "state_name": "Bihar",
    "country_name": "India",
    "latitude": "24.79686000",
    "longitude": "85.00385000",
    "isActive": true
  },
  {
    "name": "Ghoga",
    "state_name": "Bihar",
    "country_name": "India",
    "latitude": "25.21738000",
    "longitude": "87.15710000",
    "isActive": true
  },
  {
    "name": "Gopalganj",
    "state_name": "Bihar",
    "country_name": "India",
    "latitude": "26.50000000",
    "longitude": "84.33333000",
    "isActive": true
  },
  {
    "name": "Hajipur",
    "state_name": "Bihar",
    "country_name": "India",
    "latitude": "25.68544000",
    "longitude": "85.20981000",
    "isActive": true
  },
  {
    "name": "Hilsa",
    "state_name": "Bihar",
    "country_name": "India",
    "latitude": "25.31642000",
    "longitude": "85.28234000",
    "isActive": true
  },
  {
    "name": "Hisua",
    "state_name": "Bihar",
    "country_name": "India",
    "latitude": "24.83360000",
    "longitude": "85.41729000",
    "isActive": true
  },
  {
    "name": "Islampur",
    "state_name": "Bihar",
    "country_name": "India",
    "latitude": "25.14075000",
    "longitude": "85.20587000",
    "isActive": true
  },
  {
    "name": "Jagdispur",
    "state_name": "Bihar",
    "country_name": "India",
    "latitude": "25.46811000",
    "longitude": "84.41939000",
    "isActive": true
  },
  {
    "name": "Jahanabad",
    "state_name": "Bihar",
    "country_name": "India",
    "latitude": "25.21368000",
    "longitude": "84.98710000",
    "isActive": true
  },
  {
    "name": "Jamalpur",
    "state_name": "Bihar",
    "country_name": "India",
    "latitude": "25.31258000",
    "longitude": "86.48888000",
    "isActive": true
  },
  {
    "name": "Jamui",
    "state_name": "Bihar",
    "country_name": "India",
    "latitude": "24.92082000",
    "longitude": "86.17538000",
    "isActive": true
  },
  {
    "name": "Jaynagar",
    "state_name": "Bihar",
    "country_name": "India",
    "latitude": "26.59048000",
    "longitude": "86.13791000",
    "isActive": true
  },
  {
    "name": "Jehanabad",
    "state_name": "Bihar",
    "country_name": "India",
    "latitude": "25.20701000",
    "longitude": "84.99573000",
    "isActive": true
  },
  {
    "name": "Jha-Jha",
    "state_name": "Bihar",
    "country_name": "India",
    "latitude": "24.77107000",
    "longitude": "86.37888000",
    "isActive": true
  },
  {
    "name": "Jhanjharpur",
    "state_name": "Bihar",
    "country_name": "India",
    "latitude": "26.26467000",
    "longitude": "86.27993000",
    "isActive": true
  },
  {
    "name": "Jogbani",
    "state_name": "Bihar",
    "country_name": "India",
    "latitude": "26.39905000",
    "longitude": "87.26525000",
    "isActive": true
  },
  {
    "name": "Kaimur District",
    "state_name": "Bihar",
    "country_name": "India",
    "latitude": "25.05077000",
    "longitude": "83.58261000",
    "isActive": true
  },
  {
    "name": "Kasba",
    "state_name": "Bihar",
    "country_name": "India",
    "latitude": "25.85643000",
    "longitude": "87.53836000",
    "isActive": true
  },
  {
    "name": "Katihar",
    "state_name": "Bihar",
    "country_name": "India",
    "latitude": "25.50000000",
    "longitude": "87.60000000",
    "isActive": true
  },
  {
    "name": "Khagaria",
    "state_name": "Bihar",
    "country_name": "India",
    "latitude": "25.50220000",
    "longitude": "86.46708000",
    "isActive": true
  },
  {
    "name": "Khagaul",
    "state_name": "Bihar",
    "country_name": "India",
    "latitude": "25.57898000",
    "longitude": "85.04564000",
    "isActive": true
  },
  {
    "name": "Kharagpur",
    "state_name": "Bihar",
    "country_name": "India",
    "latitude": "25.12446000",
    "longitude": "86.55578000",
    "isActive": true
  },
  {
    "name": "Khusropur",
    "state_name": "Bihar",
    "country_name": "India",
    "latitude": "25.48174000",
    "longitude": "85.38492000",
    "isActive": true
  },
  {
    "name": "Kishanganj",
    "state_name": "Bihar",
    "country_name": "India",
    "latitude": "26.30000000",
    "longitude": "88.00000000",
    "isActive": true
  },
  {
    "name": "Koath",
    "state_name": "Bihar",
    "country_name": "India",
    "latitude": "25.32643000",
    "longitude": "84.25983000",
    "isActive": true
  },
  {
    "name": "Koelwar",
    "state_name": "Bihar",
    "country_name": "India",
    "latitude": "25.58055000",
    "longitude": "84.79751000",
    "isActive": true
  },
  {
    "name": "Lakhisarai",
    "state_name": "Bihar",
    "country_name": "India",
    "latitude": "25.20000000",
    "longitude": "86.20000000",
    "isActive": true
  },
  {
    "name": "Lalganj",
    "state_name": "Bihar",
    "country_name": "India",
    "latitude": "25.86894000",
    "longitude": "85.17394000",
    "isActive": true
  },
  {
    "name": "Luckeesarai",
    "state_name": "Bihar",
    "country_name": "India",
    "latitude": "25.17650000",
    "longitude": "86.09470000",
    "isActive": true
  },
  {
    "name": "Madhepura",
    "state_name": "Bihar",
    "country_name": "India",
    "latitude": "25.80000000",
    "longitude": "87.00000000",
    "isActive": true
  },
  {
    "name": "Madhubani",
    "state_name": "Bihar",
    "country_name": "India",
    "latitude": "26.35367000",
    "longitude": "86.07169000",
    "isActive": true
  },
  {
    "name": "Maharajgani",
    "state_name": "Bihar",
    "country_name": "India",
    "latitude": "26.11017000",
    "longitude": "84.50365000",
    "isActive": true
  },
  {
    "name": "Mairwa",
    "state_name": "Bihar",
    "country_name": "India",
    "latitude": "26.23218000",
    "longitude": "84.16349000",
    "isActive": true
  },
  {
    "name": "Maner",
    "state_name": "Bihar",
    "country_name": "India",
    "latitude": "25.64602000",
    "longitude": "84.87291000",
    "isActive": true
  },
  {
    "name": "Manihari",
    "state_name": "Bihar",
    "country_name": "India",
    "latitude": "25.33891000",
    "longitude": "87.61998000",
    "isActive": true
  },
  {
    "name": "Marhaura",
    "state_name": "Bihar",
    "country_name": "India",
    "latitude": "25.97349000",
    "longitude": "84.86796000",
    "isActive": true
  },
  {
    "name": "Masaurhi Buzurg",
    "state_name": "Bihar",
    "country_name": "India",
    "latitude": "25.35417000",
    "longitude": "85.03195000",
    "isActive": true
  },
  {
    "name": "Mohiuddi nagar",
    "state_name": "Bihar",
    "country_name": "India",
    "latitude": "25.57374000",
    "longitude": "85.66944000",
    "isActive": true
  },
  {
    "name": "Mokameh",
    "state_name": "Bihar",
    "country_name": "India",
    "latitude": "25.39662000",
    "longitude": "85.92190000",
    "isActive": true
  },
  {
    "name": "Monghyr",
    "state_name": "Bihar",
    "country_name": "India",
    "latitude": "25.37459000",
    "longitude": "86.47455000",
    "isActive": true
  },
  {
    "name": "Mothihari",
    "state_name": "Bihar",
    "country_name": "India",
    "latitude": "26.64862000",
    "longitude": "84.91656000",
    "isActive": true
  },
  {
    "name": "Munger",
    "state_name": "Bihar",
    "country_name": "India",
    "latitude": "25.36099000",
    "longitude": "86.46515000",
    "isActive": true
  },
  {
    "name": "Murliganj",
    "state_name": "Bihar",
    "country_name": "India",
    "latitude": "25.89690000",
    "longitude": "86.99577000",
    "isActive": true
  },
  {
    "name": "Muzaffarpur",
    "state_name": "Bihar",
    "country_name": "India",
    "latitude": "26.16667000",
    "longitude": "85.41667000",
    "isActive": true
  },
  {
    "name": "Nabinagar",
    "state_name": "Bihar",
    "country_name": "India",
    "latitude": "24.60681000",
    "longitude": "84.12624000",
    "isActive": true
  },
  {
    "name": "Nalanda",
    "state_name": "Bihar",
    "country_name": "India",
    "latitude": "25.25000000",
    "longitude": "85.58333000",
    "isActive": true
  },
  {
    "name": "Nasriganj",
    "state_name": "Bihar",
    "country_name": "India",
    "latitude": "25.05140000",
    "longitude": "84.32839000",
    "isActive": true
  },
  {
    "name": "Naugachhia",
    "state_name": "Bihar",
    "country_name": "India",
    "latitude": "25.38807000",
    "longitude": "87.09906000",
    "isActive": true
  },
  {
    "name": "Nawada",
    "state_name": "Bihar",
    "country_name": "India",
    "latitude": "24.75000000",
    "longitude": "85.50000000",
    "isActive": true
  },
  {
    "name": "Nirmali",
    "state_name": "Bihar",
    "country_name": "India",
    "latitude": "26.31397000",
    "longitude": "86.58537000",
    "isActive": true
  },
  {
    "name": "Pashchim Champaran",
    "state_name": "Bihar",
    "country_name": "India",
    "latitude": "27.00000000",
    "longitude": "84.50000000",
    "isActive": true
  },
  {
    "name": "Patna",
    "state_name": "Bihar",
    "country_name": "India",
    "latitude": "25.41667000",
    "longitude": "85.16667000",
    "isActive": true
  },
  {
    "name": "Piro",
    "state_name": "Bihar",
    "country_name": "India",
    "latitude": "25.33218000",
    "longitude": "84.40454000",
    "isActive": true
  },
  {
    "name": "Pupri",
    "state_name": "Bihar",
    "country_name": "India",
    "latitude": "26.47079000",
    "longitude": "85.70311000",
    "isActive": true
  },
  {
    "name": "Purba Champaran",
    "state_name": "Bihar",
    "country_name": "India",
    "latitude": "26.58333000",
    "longitude": "84.83333000",
    "isActive": true
  },
  {
    "name": "Purnia",
    "state_name": "Bihar",
    "country_name": "India",
    "latitude": "25.81614000",
    "longitude": "87.40708000",
    "isActive": true
  },
  {
    "name": "Rafiganj",
    "state_name": "Bihar",
    "country_name": "India",
    "latitude": "24.81757000",
    "longitude": "84.63445000",
    "isActive": true
  },
  {
    "name": "Raghunathpur",
    "state_name": "Bihar",
    "country_name": "India",
    "latitude": "25.64492000",
    "longitude": "87.91762000",
    "isActive": true
  },
  {
    "name": "Rajgir",
    "state_name": "Bihar",
    "country_name": "India",
    "latitude": "25.02828000",
    "longitude": "85.42079000",
    "isActive": true
  },
  {
    "name": "Ramnagar",
    "state_name": "Bihar",
    "country_name": "India",
    "latitude": "27.16371000",
    "longitude": "84.32342000",
    "isActive": true
  },
  {
    "name": "Raxaul",
    "state_name": "Bihar",
    "country_name": "India",
    "latitude": "26.97982000",
    "longitude": "84.85065000",
    "isActive": true
  },
  {
    "name": "Revelganj",
    "state_name": "Bihar",
    "country_name": "India",
    "latitude": "25.78976000",
    "longitude": "84.63596000",
    "isActive": true
  },
  {
    "name": "Rohtas",
    "state_name": "Bihar",
    "country_name": "India",
    "latitude": "24.97941000",
    "longitude": "84.02774000",
    "isActive": true
  },
  {
    "name": "Rusera",
    "state_name": "Bihar",
    "country_name": "India",
    "latitude": "25.75355000",
    "longitude": "86.02597000",
    "isActive": true
  },
  {
    "name": "Sagauli",
    "state_name": "Bihar",
    "country_name": "India",
    "latitude": "26.76390000",
    "longitude": "84.74341000",
    "isActive": true
  },
  {
    "name": "Saharsa",
    "state_name": "Bihar",
    "country_name": "India",
    "latitude": "25.87498000",
    "longitude": "86.59611000",
    "isActive": true
  },
  {
    "name": "Samastipur",
    "state_name": "Bihar",
    "country_name": "India",
    "latitude": "25.75000000",
    "longitude": "85.91667000",
    "isActive": true
  },
  {
    "name": "Saran",
    "state_name": "Bihar",
    "country_name": "India",
    "latitude": "25.91667000",
    "longitude": "84.75000000",
    "isActive": true
  },
  {
    "name": "Shahbazpur",
    "state_name": "Bihar",
    "country_name": "India",
    "latitude": "26.30511000",
    "longitude": "87.28865000",
    "isActive": true
  },
  {
    "name": "Shahpur",
    "state_name": "Bihar",
    "country_name": "India",
    "latitude": "25.60293000",
    "longitude": "84.40412000",
    "isActive": true
  },
  {
    "name": "Sheikhpura",
    "state_name": "Bihar",
    "country_name": "India",
    "latitude": "25.13073000",
    "longitude": "85.78176000",
    "isActive": true
  },
  {
    "name": "Sheohar",
    "state_name": "Bihar",
    "country_name": "India",
    "latitude": "26.50000000",
    "longitude": "85.30000000",
    "isActive": true
  },
  {
    "name": "Sherghati",
    "state_name": "Bihar",
    "country_name": "India",
    "latitude": "24.55950000",
    "longitude": "84.79162000",
    "isActive": true
  },
  {
    "name": "Silao",
    "state_name": "Bihar",
    "country_name": "India",
    "latitude": "25.08358000",
    "longitude": "85.42804000",
    "isActive": true
  },
  {
    "name": "Sitamarhi",
    "state_name": "Bihar",
    "country_name": "India",
    "latitude": "26.66667000",
    "longitude": "85.50000000",
    "isActive": true
  },
  {
    "name": "Siwan",
    "state_name": "Bihar",
    "country_name": "India",
    "latitude": "26.22096000",
    "longitude": "84.35609000",
    "isActive": true
  },
  {
    "name": "Supaul",
    "state_name": "Bihar",
    "country_name": "India",
    "latitude": "26.25000000",
    "longitude": "86.80000000",
    "isActive": true
  },
  {
    "name": "Teghra",
    "state_name": "Bihar",
    "country_name": "India",
    "latitude": "25.49043000",
    "longitude": "85.94001000",
    "isActive": true
  },
  {
    "name": "Tekari",
    "state_name": "Bihar",
    "country_name": "India",
    "latitude": "24.94253000",
    "longitude": "84.84265000",
    "isActive": true
  },
  {
    "name": "Thakurganj",
    "state_name": "Bihar",
    "country_name": "India",
    "latitude": "26.42742000",
    "longitude": "88.13112000",
    "isActive": true
  },
  {
    "name": "Vaishali",
    "state_name": "Bihar",
    "country_name": "India",
    "latitude": "25.75000000",
    "longitude": "85.41667000",
    "isActive": true
  },
  {
    "name": "Waris Aliganj",
    "state_name": "Bihar",
    "country_name": "India",
    "latitude": "25.01720000",
    "longitude": "85.64047000",
    "isActive": true
  },
  {
    "name": "Chandigarh",
    "state_name": "Chandigarh",
    "country_name": "India",
    "latitude": "30.73629000",
    "longitude": "76.78840000",
    "isActive": true
  },
  {
    "name": "Akaltara",
    "state_name": "Chhattisgarh",
    "country_name": "India",
    "latitude": "22.02463000",
    "longitude": "82.42641000",
    "isActive": true
  },
  {
    "name": "Ambagarh Chauki",
    "state_name": "Chhattisgarh",
    "country_name": "India",
    "latitude": "20.77644000",
    "longitude": "80.74608000",
    "isActive": true
  },
  {
    "name": "Ambikapur",
    "state_name": "Chhattisgarh",
    "country_name": "India",
    "latitude": "23.11892000",
    "longitude": "83.19537000",
    "isActive": true
  },
  {
    "name": "Arang",
    "state_name": "Chhattisgarh",
    "country_name": "India",
    "latitude": "21.19639000",
    "longitude": "81.96912000",
    "isActive": true
  },
  {
    "name": "Baikunthpur",
    "state_name": "Chhattisgarh",
    "country_name": "India",
    "latitude": "23.26206000",
    "longitude": "82.56051000",
    "isActive": true
  },
  {
    "name": "Balod",
    "state_name": "Chhattisgarh",
    "country_name": "India",
    "latitude": "20.73081000",
    "longitude": "81.20578000",
    "isActive": true
  },
  {
    "name": "Baloda",
    "state_name": "Chhattisgarh",
    "country_name": "India",
    "latitude": "22.13890000",
    "longitude": "82.48171000",
    "isActive": true
  },
  {
    "name": "Baloda Bazar",
    "state_name": "Chhattisgarh",
    "country_name": "India",
    "latitude": "21.65678000",
    "longitude": "82.16062000",
    "isActive": true
  },
  {
    "name": "Basna",
    "state_name": "Chhattisgarh",
    "country_name": "India",
    "latitude": "21.27885000",
    "longitude": "82.82670000",
    "isActive": true
  },
  {
    "name": "Bastar",
    "state_name": "Chhattisgarh",
    "country_name": "India",
    "latitude": "19.26794000",
    "longitude": "81.73828000",
    "isActive": true
  },
  {
    "name": "Bemetara",
    "state_name": "Chhattisgarh",
    "country_name": "India",
    "latitude": "21.71556000",
    "longitude": "81.53423000",
    "isActive": true
  },
  {
    "name": "Bhanpuri",
    "state_name": "Chhattisgarh",
    "country_name": "India",
    "latitude": "21.09190000",
    "longitude": "80.93218000",
    "isActive": true
  },
  {
    "name": "Bhatapara",
    "state_name": "Chhattisgarh",
    "country_name": "India",
    "latitude": "21.73500000",
    "longitude": "81.94711000",
    "isActive": true
  },
  {
    "name": "Bhatgaon",
    "state_name": "Chhattisgarh",
    "country_name": "India",
    "latitude": "21.15000000",
    "longitude": "81.70000000",
    "isActive": true
  },
  {
    "name": "Bhilai",
    "state_name": "Chhattisgarh",
    "country_name": "India",
    "latitude": "21.20919000",
    "longitude": "81.42850000",
    "isActive": true
  },
  {
    "name": "Bijapur",
    "state_name": "Chhattisgarh",
    "country_name": "India",
    "latitude": "18.84322000",
    "longitude": "80.77610000",
    "isActive": true
  },
  {
    "name": "Bilaspur",
    "state_name": "Chhattisgarh",
    "country_name": "India",
    "latitude": "22.38333000",
    "longitude": "82.13333000",
    "isActive": true
  },
  {
    "name": "Champa",
    "state_name": "Chhattisgarh",
    "country_name": "India",
    "latitude": "22.03532000",
    "longitude": "82.64234000",
    "isActive": true
  },
  {
    "name": "Chhuikhadan",
    "state_name": "Chhattisgarh",
    "country_name": "India",
    "latitude": "21.52316000",
    "longitude": "80.99788000",
    "isActive": true
  },
  {
    "name": "Dantewada",
    "state_name": "Chhattisgarh",
    "country_name": "India",
    "latitude": "18.89984800",
    "longitude": "81.33867520",
    "isActive": true
  },
  {
    "name": "Deori",
    "state_name": "Chhattisgarh",
    "country_name": "India",
    "latitude": "21.45000000",
    "longitude": "82.61667000",
    "isActive": true
  },
  {
    "name": "Dhamtari",
    "state_name": "Chhattisgarh",
    "country_name": "India",
    "latitude": "20.70718000",
    "longitude": "81.54874000",
    "isActive": true
  },
  {
    "name": "Dongargaon",
    "state_name": "Chhattisgarh",
    "country_name": "India",
    "latitude": "20.97172000",
    "longitude": "80.85077000",
    "isActive": true
  },
  {
    "name": "Dongargarh",
    "state_name": "Chhattisgarh",
    "country_name": "India",
    "latitude": "21.18893000",
    "longitude": "80.75459000",
    "isActive": true
  },
  {
    "name": "Durg",
    "state_name": "Chhattisgarh",
    "country_name": "India",
    "latitude": "21.15000000",
    "longitude": "81.40000000",
    "isActive": true
  },
  {
    "name": "Gandai",
    "state_name": "Chhattisgarh",
    "country_name": "India",
    "latitude": "21.66667000",
    "longitude": "81.10013000",
    "isActive": true
  },
  {
    "name": "Gariaband",
    "state_name": "Chhattisgarh",
    "country_name": "India",
    "latitude": "20.63323000",
    "longitude": "82.06221000",
    "isActive": true
  },
  {
    "name": "Gaurela",
    "state_name": "Chhattisgarh",
    "country_name": "India",
    "latitude": "22.75449000",
    "longitude": "81.90107000",
    "isActive": true
  },
  {
    "name": "Gharghoda",
    "state_name": "Chhattisgarh",
    "country_name": "India",
    "latitude": "22.17427000",
    "longitude": "83.35170000",
    "isActive": true
  },
  {
    "name": "Gidam",
    "state_name": "Chhattisgarh",
    "country_name": "India",
    "latitude": "18.97431000",
    "longitude": "81.39894000",
    "isActive": true
  },
  {
    "name": "Jagdalpur",
    "state_name": "Chhattisgarh",
    "country_name": "India",
    "latitude": "19.08136000",
    "longitude": "82.02131000",
    "isActive": true
  },
  {
    "name": "Janjgir",
    "state_name": "Chhattisgarh",
    "country_name": "India",
    "latitude": "22.00922000",
    "longitude": "82.57780000",
    "isActive": true
  },
  {
    "name": "Janjgir-Champa",
    "state_name": "Chhattisgarh",
    "country_name": "India",
    "latitude": "21.90000000",
    "longitude": "82.70000000",
    "isActive": true
  },
  {
    "name": "Jashpur",
    "state_name": "Chhattisgarh",
    "country_name": "India",
    "latitude": "22.78495000",
    "longitude": "83.84573000",
    "isActive": true
  },
  {
    "name": "Jashpurnagar",
    "state_name": "Chhattisgarh",
    "country_name": "India",
    "latitude": "22.88783000",
    "longitude": "84.13864000",
    "isActive": true
  },
  {
    "name": "Junagarh",
    "state_name": "Chhattisgarh",
    "country_name": "India",
    "latitude": "19.85993000",
    "longitude": "82.93385000",
    "isActive": true
  },
  {
    "name": "Kabeerdham",
    "state_name": "Chhattisgarh",
    "country_name": "India",
    "latitude": "22.10000000",
    "longitude": "81.20000000",
    "isActive": true
  },
  {
    "name": "Kanker",
    "state_name": "Chhattisgarh",
    "country_name": "India",
    "latitude": "20.27193000",
    "longitude": "81.49177000",
    "isActive": true
  },
  {
    "name": "Katghora",
    "state_name": "Chhattisgarh",
    "country_name": "India",
    "latitude": "22.50247000",
    "longitude": "82.54279000",
    "isActive": true
  },
  {
    "name": "Kawardha",
    "state_name": "Chhattisgarh",
    "country_name": "India",
    "latitude": "22.00853000",
    "longitude": "81.23148000",
    "isActive": true
  },
  {
    "name": "Khairagarh",
    "state_name": "Chhattisgarh",
    "country_name": "India",
    "latitude": "21.41859000",
    "longitude": "80.97942000",
    "isActive": true
  },
  {
    "name": "Khamharia",
    "state_name": "Chhattisgarh",
    "country_name": "India",
    "latitude": "20.97600000",
    "longitude": "82.25116000",
    "isActive": true
  },
  {
    "name": "Kharod",
    "state_name": "Chhattisgarh",
    "country_name": "India",
    "latitude": "21.74420000",
    "longitude": "82.57880000",
    "isActive": true
  },
  {
    "name": "Kharsia",
    "state_name": "Chhattisgarh",
    "country_name": "India",
    "latitude": "21.98953000",
    "longitude": "83.10476000",
    "isActive": true
  },
  {
    "name": "Kirandul",
    "state_name": "Chhattisgarh",
    "country_name": "India",
    "latitude": "18.63649000",
    "longitude": "81.25827000",
    "isActive": true
  },
  {
    "name": "Kondagaon",
    "state_name": "Chhattisgarh",
    "country_name": "India",
    "latitude": "19.59083000",
    "longitude": "81.66400000",
    "isActive": true
  },
  {
    "name": "Korba",
    "state_name": "Chhattisgarh",
    "country_name": "India",
    "latitude": "22.50000000",
    "longitude": "82.60000000",
    "isActive": true
  },
  {
    "name": "Koria",
    "state_name": "Chhattisgarh",
    "country_name": "India",
    "latitude": "23.48326000",
    "longitude": "82.15037000",
    "isActive": true
  },
  {
    "name": "Kota",
    "state_name": "Chhattisgarh",
    "country_name": "India",
    "latitude": "22.29507000",
    "longitude": "82.02366000",
    "isActive": true
  },
  {
    "name": "Kotaparh",
    "state_name": "Chhattisgarh",
    "country_name": "India",
    "latitude": "19.14256000",
    "longitude": "82.32536000",
    "isActive": true
  },
  {
    "name": "Kumhari",
    "state_name": "Chhattisgarh",
    "country_name": "India",
    "latitude": "21.26667000",
    "longitude": "81.51667000",
    "isActive": true
  },
  {
    "name": "Kurud",
    "state_name": "Chhattisgarh",
    "country_name": "India",
    "latitude": "20.83073000",
    "longitude": "81.72212000",
    "isActive": true
  },
  {
    "name": "Lormi",
    "state_name": "Chhattisgarh",
    "country_name": "India",
    "latitude": "22.27434000",
    "longitude": "81.70181000",
    "isActive": true
  },
  {
    "name": "Mahasamund",
    "state_name": "Chhattisgarh",
    "country_name": "India",
    "latitude": "21.20000000",
    "longitude": "82.50000000",
    "isActive": true
  },
  {
    "name": "Mungeli",
    "state_name": "Chhattisgarh",
    "country_name": "India",
    "latitude": "22.06566000",
    "longitude": "81.68543000",
    "isActive": true
  },
  {
    "name": "Narayanpur",
    "state_name": "Chhattisgarh",
    "country_name": "India",
    "latitude": "19.60426000",
    "longitude": "81.08119000",
    "isActive": true
  },
  {
    "name": "Narharpur",
    "state_name": "Chhattisgarh",
    "country_name": "India",
    "latitude": "20.44892000",
    "longitude": "81.62004000",
    "isActive": true
  },
  {
    "name": "Pandaria",
    "state_name": "Chhattisgarh",
    "country_name": "India",
    "latitude": "22.22495000",
    "longitude": "81.40994000",
    "isActive": true
  },
  {
    "name": "Pandatarai",
    "state_name": "Chhattisgarh",
    "country_name": "India",
    "latitude": "22.18714000",
    "longitude": "81.32815000",
    "isActive": true
  },
  {
    "name": "Pasan",
    "state_name": "Chhattisgarh",
    "country_name": "India",
    "latitude": "22.84412000",
    "longitude": "82.19823000",
    "isActive": true
  },
  {
    "name": "Patan",
    "state_name": "Chhattisgarh",
    "country_name": "India",
    "latitude": "21.03333000",
    "longitude": "81.53333000",
    "isActive": true
  },
  {
    "name": "Pathalgaon",
    "state_name": "Chhattisgarh",
    "country_name": "India",
    "latitude": "22.55656000",
    "longitude": "83.46355000",
    "isActive": true
  },
  {
    "name": "Pendra",
    "state_name": "Chhattisgarh",
    "country_name": "India",
    "latitude": "22.77548000",
    "longitude": "81.95968000",
    "isActive": true
  },
  {
    "name": "Pithora",
    "state_name": "Chhattisgarh",
    "country_name": "India",
    "latitude": "21.25021000",
    "longitude": "82.51707000",
    "isActive": true
  },
  {
    "name": "Raigarh",
    "state_name": "Chhattisgarh",
    "country_name": "India",
    "latitude": "22.08582000",
    "longitude": "83.30603000",
    "isActive": true
  },
  {
    "name": "Raipur",
    "state_name": "Chhattisgarh",
    "country_name": "India",
    "latitude": "21.25621000",
    "longitude": "81.69022000",
    "isActive": true
  },
  {
    "name": "Raj Nandgaon",
    "state_name": "Chhattisgarh",
    "country_name": "India",
    "latitude": "21.16667000",
    "longitude": "81.00000000",
    "isActive": true
  },
  {
    "name": "Ramanuj Ganj",
    "state_name": "Chhattisgarh",
    "country_name": "India",
    "latitude": "23.80637000",
    "longitude": "83.69981000",
    "isActive": true
  },
  {
    "name": "Ratanpur",
    "state_name": "Chhattisgarh",
    "country_name": "India",
    "latitude": "22.28660000",
    "longitude": "82.16823000",
    "isActive": true
  },
  {
    "name": "Sakti",
    "state_name": "Chhattisgarh",
    "country_name": "India",
    "latitude": "22.02662000",
    "longitude": "82.96091000",
    "isActive": true
  },
  {
    "name": "Saraipali",
    "state_name": "Chhattisgarh",
    "country_name": "India",
    "latitude": "21.31530000",
    "longitude": "83.00629000",
    "isActive": true
  },
  {
    "name": "Sarangarh",
    "state_name": "Chhattisgarh",
    "country_name": "India",
    "latitude": "21.58614000",
    "longitude": "83.07850000",
    "isActive": true
  },
  {
    "name": "Seorinarayan",
    "state_name": "Chhattisgarh",
    "country_name": "India",
    "latitude": "21.72055000",
    "longitude": "82.59344000",
    "isActive": true
  },
  {
    "name": "Simga",
    "state_name": "Chhattisgarh",
    "country_name": "India",
    "latitude": "21.62810000",
    "longitude": "81.70376000",
    "isActive": true
  },
  {
    "name": "Surguja",
    "state_name": "Chhattisgarh",
    "country_name": "India",
    "latitude": "22.89624000",
    "longitude": "83.09631000",
    "isActive": true
  },
  {
    "name": "Takhatpur",
    "state_name": "Chhattisgarh",
    "country_name": "India",
    "latitude": "22.12915000",
    "longitude": "81.86959000",
    "isActive": true
  },
  {
    "name": "Umarkot",
    "state_name": "Chhattisgarh",
    "country_name": "India",
    "latitude": "19.66529000",
    "longitude": "82.20629000",
    "isActive": true
  },
  {
    "name": "Uttar Bastar Kanker",
    "state_name": "Chhattisgarh",
    "country_name": "India",
    "latitude": "20.20000000",
    "longitude": "81.10000000",
    "isActive": true
  },
  {
    "name": "Amli",
    "state_name": "Dadra and Nagar Haveli and Daman and Diu",
    "country_name": "India",
    "latitude": "20.28333000",
    "longitude": "73.01667000",
    "isActive": true
  },
  {
    "name": "Dadra",
    "state_name": "Dadra and Nagar Haveli and Daman and Diu",
    "country_name": "India",
    "latitude": "20.32504000",
    "longitude": "72.96618000",
    "isActive": true
  },
  {
    "name": "Dadra & Nagar Haveli",
    "state_name": "Dadra and Nagar Haveli and Daman and Diu",
    "country_name": "India",
    "latitude": "20.20651000",
    "longitude": "73.00811000",
    "isActive": true
  },
  {
    "name": "Daman",
    "state_name": "Dadra and Nagar Haveli and Daman and Diu",
    "country_name": "India",
    "latitude": "20.41431000",
    "longitude": "72.83236000",
    "isActive": true
  },
  {
    "name": "Diu",
    "state_name": "Dadra and Nagar Haveli and Daman and Diu",
    "country_name": "India",
    "latitude": "20.72081000",
    "longitude": "70.93989000",
    "isActive": true
  },
  {
    "name": "Silvassa",
    "state_name": "Dadra and Nagar Haveli and Daman and Diu",
    "country_name": "India",
    "latitude": "20.27386000",
    "longitude": "72.99673000",
    "isActive": true
  },
  {
    "name": "Alipur",
    "state_name": "Delhi",
    "country_name": "India",
    "latitude": "28.79862000",
    "longitude": "77.13314000",
    "isActive": true
  },
  {
    "name": "Bawana",
    "state_name": "Delhi",
    "country_name": "India",
    "latitude": "28.79820000",
    "longitude": "77.03431000",
    "isActive": true
  },
  {
    "name": "Central Delhi",
    "state_name": "Delhi",
    "country_name": "India",
    "latitude": "28.64857000",
    "longitude": "77.21895000",
    "isActive": true
  },
  {
    "name": "Delhi",
    "state_name": "Delhi",
    "country_name": "India",
    "latitude": "28.65195000",
    "longitude": "77.23149000",
    "isActive": true
  },
  {
    "name": "Deoli",
    "state_name": "Delhi",
    "country_name": "India",
    "latitude": "28.50254000",
    "longitude": "77.23117000",
    "isActive": true
  },
  {
    "name": "East Delhi",
    "state_name": "Delhi",
    "country_name": "India",
    "latitude": "28.66242000",
    "longitude": "77.29122000",
    "isActive": true
  },
  {
    "name": "Karol Bagh",
    "state_name": "Delhi",
    "country_name": "India",
    "latitude": "28.65136000",
    "longitude": "77.19072000",
    "isActive": true
  },
  {
    "name": "Najafgarh",
    "state_name": "Delhi",
    "country_name": "India",
    "latitude": "28.60922000",
    "longitude": "76.97982000",
    "isActive": true
  },
  {
    "name": "Nangloi Jat",
    "state_name": "Delhi",
    "country_name": "India",
    "latitude": "28.67957000",
    "longitude": "77.06799000",
    "isActive": true
  },
  {
    "name": "Narela",
    "state_name": "Delhi",
    "country_name": "India",
    "latitude": "28.85267000",
    "longitude": "77.09288000",
    "isActive": true
  },
  {
    "name": "New Delhi",
    "state_name": "Delhi",
    "country_name": "India",
    "latitude": "28.63576000",
    "longitude": "77.22445000",
    "isActive": true
  },
  {
    "name": "North Delhi",
    "state_name": "Delhi",
    "country_name": "India",
    "latitude": "28.66920000",
    "longitude": "77.22273000",
    "isActive": true
  },
  {
    "name": "North East Delhi",
    "state_name": "Delhi",
    "country_name": "India",
    "latitude": "28.68690000",
    "longitude": "77.30195000",
    "isActive": true
  },
  {
    "name": "North West Delhi",
    "state_name": "Delhi",
    "country_name": "India",
    "latitude": "28.70113000",
    "longitude": "77.10154000",
    "isActive": true
  },
  {
    "name": "Pitampura",
    "state_name": "Delhi",
    "country_name": "India",
    "latitude": "28.68964000",
    "longitude": "77.13126000",
    "isActive": true
  },
  {
    "name": "Rohini",
    "state_name": "Delhi",
    "country_name": "India",
    "latitude": "28.74322000",
    "longitude": "77.06778000",
    "isActive": true
  },
  {
    "name": "South Delhi",
    "state_name": "Delhi",
    "country_name": "India",
    "latitude": "28.53009000",
    "longitude": "77.25174000",
    "isActive": true
  },
  {
    "name": "South West Delhi",
    "state_name": "Delhi",
    "country_name": "India",
    "latitude": "28.58060000",
    "longitude": "77.06720000",
    "isActive": true
  },
  {
    "name": "West Delhi",
    "state_name": "Delhi",
    "country_name": "India",
    "latitude": "28.65655000",
    "longitude": "77.10068000",
    "isActive": true
  },
  {
    "name": "Aldona",
    "state_name": "Goa",
    "country_name": "India",
    "latitude": "15.59337000",
    "longitude": "73.87482000",
    "isActive": true
  },
  {
    "name": "Arambol",
    "state_name": "Goa",
    "country_name": "India",
    "latitude": "15.68681000",
    "longitude": "73.70449000",
    "isActive": true
  },
  {
    "name": "Baga",
    "state_name": "Goa",
    "country_name": "India",
    "latitude": "15.56517000",
    "longitude": "73.75517000",
    "isActive": true
  },
  {
    "name": "Bambolim",
    "state_name": "Goa",
    "country_name": "India",
    "latitude": "15.46361000",
    "longitude": "73.85310000",
    "isActive": true
  },
  {
    "name": "Bandora",
    "state_name": "Goa",
    "country_name": "India",
    "latitude": "15.40823000",
    "longitude": "73.98129000",
    "isActive": true
  },
  {
    "name": "Benaulim",
    "state_name": "Goa",
    "country_name": "India",
    "latitude": "15.26435000",
    "longitude": "73.92812000",
    "isActive": true
  },
  {
    "name": "Calangute",
    "state_name": "Goa",
    "country_name": "India",
    "latitude": "15.54390000",
    "longitude": "73.75530000",
    "isActive": true
  },
  {
    "name": "Candolim",
    "state_name": "Goa",
    "country_name": "India",
    "latitude": "15.51807000",
    "longitude": "73.76259000",
    "isActive": true
  },
  {
    "name": "Carapur",
    "state_name": "Goa",
    "country_name": "India",
    "latitude": "15.56588000",
    "longitude": "73.98713000",
    "isActive": true
  },
  {
    "name": "Cavelossim",
    "state_name": "Goa",
    "country_name": "India",
    "latitude": "15.17255000",
    "longitude": "73.94194000",
    "isActive": true
  },
  {
    "name": "Chicalim",
    "state_name": "Goa",
    "country_name": "India",
    "latitude": "15.39835000",
    "longitude": "73.84216000",
    "isActive": true
  },
  {
    "name": "Chinchinim",
    "state_name": "Goa",
    "country_name": "India",
    "latitude": "15.21447000",
    "longitude": "73.97555000",
    "isActive": true
  },
  {
    "name": "Colovale",
    "state_name": "Goa",
    "country_name": "India",
    "latitude": "15.63522000",
    "longitude": "73.82426000",
    "isActive": true
  },
  {
    "name": "Colva",
    "state_name": "Goa",
    "country_name": "India",
    "latitude": "15.27976000",
    "longitude": "73.92285000",
    "isActive": true
  },
  {
    "name": "Cortalim",
    "state_name": "Goa",
    "country_name": "India",
    "latitude": "15.40247000",
    "longitude": "73.90881000",
    "isActive": true
  },
  {
    "name": "Cuncolim",
    "state_name": "Goa",
    "country_name": "India",
    "latitude": "15.17730000",
    "longitude": "73.99392000",
    "isActive": true
  },
  {
    "name": "Curchorem",
    "state_name": "Goa",
    "country_name": "India",
    "latitude": "15.26349000",
    "longitude": "74.10875000",
    "isActive": true
  },
  {
    "name": "Curti",
    "state_name": "Goa",
    "country_name": "India",
    "latitude": "15.41667000",
    "longitude": "74.01667000",
    "isActive": true
  },
  {
    "name": "Davorlim",
    "state_name": "Goa",
    "country_name": "India",
    "latitude": "15.27221000",
    "longitude": "73.99242000",
    "isActive": true
  },
  {
    "name": "Dicholi",
    "state_name": "Goa",
    "country_name": "India",
    "latitude": "15.59319000",
    "longitude": "73.94571000",
    "isActive": true
  },
  {
    "name": "Goa Velha",
    "state_name": "Goa",
    "country_name": "India",
    "latitude": "15.44384000",
    "longitude": "73.88572000",
    "isActive": true
  },
  {
    "name": "Guirim",
    "state_name": "Goa",
    "country_name": "India",
    "latitude": "15.57552000",
    "longitude": "73.80722000",
    "isActive": true
  },
  {
    "name": "Jua",
    "state_name": "Goa",
    "country_name": "India",
    "latitude": "15.53070000",
    "longitude": "73.95047000",
    "isActive": true
  },
  {
    "name": "Kankon",
    "state_name": "Goa",
    "country_name": "India",
    "latitude": "15.02698000",
    "longitude": "74.04617000",
    "isActive": true
  },
  {
    "name": "Madgaon",
    "state_name": "Goa",
    "country_name": "India",
    "latitude": "15.27501000",
    "longitude": "73.95786000",
    "isActive": true
  },
  {
    "name": "Mapuca",
    "state_name": "Goa",
    "country_name": "India",
    "latitude": "15.59154000",
    "longitude": "73.80898000",
    "isActive": true
  },
  {
    "name": "Morjim",
    "state_name": "Goa",
    "country_name": "India",
    "latitude": "15.63097000",
    "longitude": "73.73903000",
    "isActive": true
  },
  {
    "name": "Mormugao",
    "state_name": "Goa",
    "country_name": "India",
    "latitude": "15.38914000",
    "longitude": "73.81491000",
    "isActive": true
  },
  {
    "name": "Navelim",
    "state_name": "Goa",
    "country_name": "India",
    "latitude": "15.53333000",
    "longitude": "73.98333000",
    "isActive": true
  },
  {
    "name": "North Goa",
    "state_name": "Goa",
    "country_name": "India",
    "latitude": "15.53397000",
    "longitude": "73.96408000",
    "isActive": true
  },
  {
    "name": "Palle",
    "state_name": "Goa",
    "country_name": "India",
    "latitude": "15.46667000",
    "longitude": "74.08333000",
    "isActive": true
  },
  {
    "name": "Panaji",
    "state_name": "Goa",
    "country_name": "India",
    "latitude": "15.49574000",
    "longitude": "73.82624000",
    "isActive": true
  },
  {
    "name": "Pernem",
    "state_name": "Goa",
    "country_name": "India",
    "latitude": "15.72300000",
    "longitude": "73.79511000",
    "isActive": true
  },
  {
    "name": "Ponda",
    "state_name": "Goa",
    "country_name": "India",
    "latitude": "15.40341000",
    "longitude": "74.01519000",
    "isActive": true
  },
  {
    "name": "Quepem",
    "state_name": "Goa",
    "country_name": "India",
    "latitude": "15.21280000",
    "longitude": "74.07720000",
    "isActive": true
  },
  {
    "name": "Queula",
    "state_name": "Goa",
    "country_name": "India",
    "latitude": "15.39011000",
    "longitude": "73.98557000",
    "isActive": true
  },
  {
    "name": "Raia",
    "state_name": "Goa",
    "country_name": "India",
    "latitude": "15.30499000",
    "longitude": "73.97096000",
    "isActive": true
  },
  {
    "name": "Saligao",
    "state_name": "Goa",
    "country_name": "India",
    "latitude": "15.55359000",
    "longitude": "73.79036000",
    "isActive": true
  },
  {
    "name": "Sancoale",
    "state_name": "Goa",
    "country_name": "India",
    "latitude": "15.37794000",
    "longitude": "73.90352000",
    "isActive": true
  },
  {
    "name": "Sanguem",
    "state_name": "Goa",
    "country_name": "India",
    "latitude": "15.22901000",
    "longitude": "74.15149000",
    "isActive": true
  },
  {
    "name": "Sanquelim",
    "state_name": "Goa",
    "country_name": "India",
    "latitude": "15.56422000",
    "longitude": "74.00799000",
    "isActive": true
  },